{"meta":{"code":200,"requestId":"5fa6c75c4ec80a3f05bb3906"},"response":{"venues":[{"id":"4b2034eff964a520af2e24e3","name":"McDonald's","contact":{},"location":{"address":"Autotalo","crossStreet":"Fredrikinkatu 46","lat":60.16893493682833,"lng":24.93009426819029,"labeledLatLngs":[{"label":"display","lat":60.16893493682833,"lng":24.93009426819029}],"distance":811,"postalCode":"00100","cc":"FI","city":"Helsinki","state":"Uusimaa","country":"Suomi","formattedAddress":["Autotalo (Fredrikinkatu 46)","00100 Helsinki","Suomi"]},"categories":[{"id":"4bf58dd8d48988d16e941735","name":"Fast Food Restaurant","pluralName":"Fast Food Restaurants","shortName":"Fast Food","icon":{"prefix":"https:\/\/ss3.4sqi.net\/img\/categories_v2\/food\/fastfood_","suffix":".png"},"primary":true}],"verified":true,"stats":{"tipCount":0,"usersCount":0,"checkinsCount":0,"visitsCount":0},"beenHere":{"count":0,"lastCheckinExpiredAt":0,"marked":false,"unconfirmedCount":0},"hereNow":{"count":0,"summary":"Nobody here","groups":[]},"referralId":"v-1604765532","venueChains":[],"hasPerk":false},{"id":"5daec76c5e7a4d0007681a87","name":"Lopez y Lopez","contact":{},"location":{"address":"Työpajankatu 2a R 1 d","lat":60.190265,"lng":24.97184,"labeledLatLngs":[{"label":"display","lat":60.190265,"lng":24.97184}],"distance":3786,"postalCode":"00580","cc":"FI","city":"Helsinki","state":"Uusimaa","country":"Suomi","formattedAddress":["Työpajankatu 2a R 1 d","00580 Helsinki","Suomi"]},"categories":[{"id":"4bf58dd8d48988d151941735","name":"Taco Place","pluralName":"Taco Places","shortName":"Tacos","icon":{"prefix":"https:\/\/ss3.4sqi.net\/img\/categories_v2\/food\/taco_","suffix":".png"},"primary":true}],"verified":false,"stats":{"tipCount":0,"usersCount":0,"checkinsCount":0,"visitsCount":0},"beenHere":{"count":0,"lastCheckinExpiredAt":0,"marked":false,"unconfirmedCount":0},"hereNow":{"count":0,"summary":"Nobody here","groups":[]},"referralId":"v-1604765532","venueChains":[],"hasPerk":false},{"id":"5fa142959bf06174be673afa","name":"Konttiravintola Morton","contact":{},"location":{"address":"Ruoholahdenranta 8","lat":60.162898425902334,"lng":24.922526748628115,"labeledLatLngs":[{"label":"display","lat":60.162898425902334,"lng":24.922526748628115}],"distance":943,"postalCode":"00180","cc":"FI","city":"Helsinki","state":"Uusimaa","country":"Suomi","formattedAddress":["Ruoholahdenranta 8","00180 Helsinki","Suomi"]},"categories":[{"id":"4bf58dd8d48988d16c941735","name":"Burger Joint","pluralName":"Burger Joints","shortName":"Burgers","icon":{"prefix":"https:\/\/ss3.4sqi.net\/img\/categories_v2\/food\/burger_","suffix":".png"},"primary":true}],"verified":false,"stats":{"tipCount":0,"usersCount":0,"checkinsCount":0,"visitsCount":0},"beenHere":{"count":0,"lastCheckinExpiredAt":0,"marked":false,"unconfirmedCount":0},"hereNow":{"count":0,"summary":"Nobody here","groups":[]},"referralId":"v-1604765532","venueChains":[],"hasPerk":false},{"id":"5f0c61b690a02b480cc62a14","name":"Pien Brewpub","contact":{},"location":{"address":"Hämeentie 15","lat":60.18459799999999,"lng":24.9606615,"labeledLatLngs":[{"label":"display","lat":60.18459799999999,"lng":24.9606615}],"distance":2922,"postalCode":"00500","cc":"FI","city":"Helsinki","state":"Uusimaa","country":"Suomi","formattedAddress":["Hämeentie 15","00500 Helsinki","Suomi"]},"categories":[{"id":"50327c8591d4c4b30a586d5d","name":"Brewery","pluralName":"Breweries","shortName":"Brewery","icon":{"prefix":"https:\/\/ss3.4sqi.net\/img\/categories_v2\/food\/brewery_","suffix":".png"},"primary":true}],"verified":false,"stats":{"tipCount":0,"usersCount":0,"checkinsCount":0,"visitsCount":0},"beenHere":{"count":0,"lastCheckinExpiredAt":0,"marked":false,"unconfirmedCount":0},"hereNow":{"count":0,"summary":"Nobody here","groups":[]},"referralId":"v-1604765532","venueChains":[],"hasPerk":false},{"id":"5db3250b59868400072dad9c","name":"Food Garden","contact":{},"location":{"address":"Kauppakeskus AINOA, 3. krs","crossStreet":"Länsituuli 5","lat":60.175708,"lng":24.804493,"labeledLatLngs":[{"label":"display","lat":60.175708,"lng":24.804493}],"distance":6192,"postalCode":"02100","cc":"FI","neighborhood":"Tapiola","city":"Espoo","state":"Uusimaa","country":"Suomi","formattedAddress":["Kauppakeskus AINOA, 3. krs (Länsituuli 5)","02100 Espoo","Suomi"]},"categories":[{"id":"4bf58dd8d48988d120951735","name":"Food Court","pluralName":"Food Courts","shortName":"Food Court","icon":{"prefix":"https:\/\/ss3.4sqi.net\/img\/categories_v2\/shops\/food_foodcourt_","suffix":".png"},"primary":true}],"verified":false,"stats":{"tipCount":0,"usersCount":0,"checkinsCount":0,"visitsCount":0},"beenHere":{"count":0,"lastCheckinExpiredAt":0,"marked":false,"unconfirmedCount":0},"hereNow":{"count":0,"summary":"Nobody here","groups":[]},"referralId":"v-1604765532","venueChains":[],"hasPerk":false},{"id":"5bf2e1633af988002c0774ed","name":"Bistro","contact":{},"location":{"address":"Food Market Herkku","crossStreet":"Aleksanterinkatu 52","lat":60.168014366099996,"lng":24.94271993637085,"labeledLatLngs":[{"label":"display","lat":60.168014366099996,"lng":24.94271993637085}],"distance":1516,"postalCode":"00100","cc":"FI","city":"Helsinki","state":"Uusimaa","country":"Suomi","formattedAddress":["Food Market Herkku (Aleksanterinkatu 52)","00100 Helsinki","Suomi"]},"categories":[{"id":"52e81612bcbc57f1066b79f1","name":"Bistro","pluralName":"Bistros","shortName":"Bistro","icon":{"prefix":"https:\/\/ss3.4sqi.net\/img\/categories_v2\/food\/default_","suffix":".png"},"primary":true}],"verified":false,"stats":{"tipCount":0,"usersCount":0,"checkinsCount":0,"visitsCount":0},"beenHere":{"count":0,"lastCheckinExpiredAt":0,"marked":false,"unconfirmedCount":0},"hereNow":{"count":0,"summary":"Nobody here","groups":[]},"referralId":"v-1604765532","venueChains":[],"hasPerk":false},{"id":"4adcdb20f964a520c85f21e3","name":"Juttutupa","contact":{},"location":{"address":"Säästöpankinranta 6","lat":60.17890112093717,"lng":24.947140478298103,"labeledLatLngs":[{"label":"display","lat":60.17890112093717,"lng":24.947140478298103}],"distance":1956,"postalCode":"00530","cc":"FI","city":"Helsinki","state":"Uusimaa","country":"Suomi","formattedAddress":["Säästöpankinranta 6","00530 Helsinki","Suomi"]},"categories":[{"id":"4bf58dd8d48988d155941735","name":"Gastropub","pluralName":"Gastropubs","shortName":"Gastropub","icon":{"prefix":"https:\/\/ss3.4sqi.net\/img\/categories_v2\/food\/gastropub_","suffix":".png"},"primary":true}],"verified":false,"stats":{"tipCount":0,"usersCount":0,"checkinsCount":0,"visitsCount":0},"beenHere":{"count":0,"lastCheckinExpiredAt":0,"marked":false,"unconfirmedCount":0},"hereNow":{"count":0,"summary":"Nobody here","groups":[]},"referralId":"v-1604765532","venueChains":[],"hasPerk":false},{"id":"4adcdb22f964a520366021e3","name":"Café Mellsten","contact":{},"location":{"address":"Mellstenintie 6","lat":60.15412057523106,"lng":24.773350512178954,"labeledLatLngs":[{"label":"display","lat":60.15412057523106,"lng":24.773350512178954}],"distance":8106,"postalCode":"02170","cc":"FI","neighborhood":"Haukilahti","city":"Espoo","state":"Uusimaa","country":"Suomi","formattedAddress":["Mellstenintie 6","02170 Espoo","Suomi"]},"categories":[{"id":"4bf58dd8d48988d16d941735","name":"Café","pluralName":"Cafés","shortName":"Café","icon":{"prefix":"https:\/\/ss3.4sqi.net\/img\/categories_v2\/food\/cafe_","suffix":".png"},"primary":true}],"verified":false,"stats":{"tipCount":0,"usersCount":0,"checkinsCount":0,"visitsCount":0},"beenHere":{"count":0,"lastCheckinExpiredAt":0,"marked":false,"unconfirmedCount":0},"hereNow":{"count":0,"summary":"Nobody here","groups":[]},"referralId":"v-1604765532","venueChains":[],"hasPerk":false},{"id":"5b4c70d1829b0c002c9fe358","name":"Tanner","contact":{},"location":{"address":"Hämeentie 11","crossStreet":"Kaikukatu","lat":60.183198283888096,"lng":24.95863904544892,"labeledLatLngs":[{"label":"display","lat":60.183198283888096,"lng":24.95863904544892}],"distance":2745,"postalCode":"00530","cc":"FI","neighborhood":"Sömäinen","city":"Helsinki","state":"Uusimaa","country":"Suomi","formattedAddress":["Hämeentie 11 (Kaikukatu)","00530 Helsinki","Suomi"]},"categories":[{"id":"4bf58dd8d48988d1c6941735","name":"Scandinavian Restaurant","pluralName":"Scandinavian Restaurants","shortName":"Scandinavian","icon":{"prefix":"https:\/\/ss3.4sqi.net\/img\/categories_v2\/food\/scandinavian_","suffix":".png"},"primary":true}],"verified":false,"stats":{"tipCount":0,"usersCount":0,"checkinsCount":0,"visitsCount":0},"beenHere":{"count":0,"lastCheckinExpiredAt":0,"marked":false,"unconfirmedCount":0},"hereNow":{"count":1,"summary":"One other person is here","groups":[{"type":"others","name":"Other people here","count":1,"items":[]}]},"referralId":"v-1604765532","venueChains":[],"hasPerk":false},{"id":"4adcdb22f964a5205c6021e3","name":"Siltanen","contact":{},"location":{"address":"Hämeentie 13 B","lat":60.18424733568201,"lng":24.96036395915457,"labeledLatLngs":[{"label":"display","lat":60.18424733568201,"lng":24.96036395915457}],"distance":2887,"postalCode":"00530","cc":"FI","neighborhood":"Sörnäinen","city":"Helsinki","state":"Uusimaa","country":"Suomi","formattedAddress":["Hämeentie 13 B","00530 Helsinki","Suomi"]},"categories":[{"id":"4bf58dd8d48988d116941735","name":"Bar","pluralName":"Bars","shortName":"Bar","icon":{"prefix":"https:\/\/ss3.4sqi.net\/img\/categories_v2\/nightlife\/pub_","suffix":".png"},"primary":true}],"verified":false,"stats":{"tipCount":0,"usersCount":0,"checkinsCount":0,"visitsCount":0},"beenHere":{"count":0,"lastCheckinExpiredAt":0,"marked":false,"unconfirmedCount":0},"hereNow":{"count":0,"summary":"Nobody here","groups":[]},"referralId":"v-1604765532","venueChains":[],"hasPerk":false},{"id":"4b5a417df964a520e0b728e3","name":"Café Carusel","contact":{},"location":{"address":"Merisatamanranta 10","lat":60.15373677293694,"lng":24.942715017305744,"labeledLatLngs":[{"label":"display","lat":60.15373677293694,"lng":24.942715017305744}],"distance":2403,"postalCode":"00150","cc":"FI","city":"Helsinki","state":"Uusimaa","country":"Suomi","formattedAddress":["Merisatamanranta 10","00150 Helsinki","Suomi"]},"categories":[{"id":"4bf58dd8d48988d16d941735","name":"Café","pluralName":"Cafés","shortName":"Café","icon":{"prefix":"https:\/\/ss3.4sqi.net\/img\/categories_v2\/food\/cafe_","suffix":".png"},"primary":true}],"verified":false,"stats":{"tipCount":0,"usersCount":0,"checkinsCount":0,"visitsCount":0},"beenHere":{"count":0,"lastCheckinExpiredAt":0,"marked":false,"unconfirmedCount":0},"hereNow":{"count":0,"summary":"Nobody here","groups":[]},"referralId":"v-1604765532","venueChains":[],"hasPerk":false},{"id":"4d84694ef1e56ea86f82748a","name":"IKEA Ravintola","contact":{},"location":{"address":"IKEA","crossStreet":"Espoontie 21","lat":60.21667895191254,"lng":24.662959204326814,"labeledLatLngs":[{"label":"display","lat":60.21667895191254,"lng":24.662959204326814}],"distance":14901,"postalCode":"02740","cc":"FI","city":"Espoo","state":"Uusimaa","country":"Suomi","formattedAddress":["IKEA (Espoontie 21)","02740 Espoo","Suomi"]},"categories":[{"id":"4bf58dd8d48988d128941735","name":"Cafeteria","pluralName":"Cafeterias","shortName":"Cafeteria","icon":{"prefix":"https:\/\/ss3.4sqi.net\/img\/categories_v2\/education\/cafeteria_","suffix":".png"},"primary":true}],"verified":false,"stats":{"tipCount":0,"usersCount":0,"checkinsCount":0,"visitsCount":0},"beenHere":{"count":0,"lastCheckinExpiredAt":0,"marked":false,"unconfirmedCount":0},"hereNow":{"count":0,"summary":"Nobody here","groups":[]},"referralId":"v-1604765532","venueChains":[],"hasPerk":false},{"id":"4b4d8983f964a520bfd326e3","name":"McDonald's","contact":{},"location":{"address":"Niittymaantie 6","lat":60.17117888753246,"lng":24.77797124192889,"labeledLatLngs":[{"label":"display","lat":60.17117888753246,"lng":24.77797124192889}],"distance":7636,"postalCode":"02200","cc":"FI","city":"Espoo","state":"Uusimaa","country":"Suomi","formattedAddress":["Niittymaantie 6","02200 Espoo","Suomi"]},"categories":[{"id":"4bf58dd8d48988d16e941735","name":"Fast Food Restaurant","pluralName":"Fast Food Restaurants","shortName":"Fast Food","icon":{"prefix":"https:\/\/ss3.4sqi.net\/img\/categories_v2\/food\/fastfood_","suffix":".png"},"primary":true}],"verified":true,"stats":{"tipCount":0,"usersCount":0,"checkinsCount":0,"visitsCount":0},"beenHere":{"count":0,"lastCheckinExpiredAt":0,"marked":false,"unconfirmedCount":0},"hereNow":{"count":0,"summary":"Nobody here","groups":[]},"referralId":"v-1604765532","venueChains":[],"hasPerk":false},{"id":"5beb2f332f97ec668e5c16d5","name":"Meli Cafe & Bakery","contact":{},"location":{"address":"Helsinginkatu 11","lat":60.187303,"lng":24.956432,"labeledLatLngs":[{"label":"display","lat":60.187303,"lng":24.956432}],"distance":2908,"postalCode":"00520","cc":"FI","city":"Helsinki","state":"Uusimaa","country":"Suomi","formattedAddress":["Helsinginkatu 11","00520 Helsinki","Suomi"]},"categories":[{"id":"4bf58dd8d48988d16a941735","name":"Bakery","pluralName":"Bakeries","shortName":"Bakery","icon":{"prefix":"https:\/\/ss3.4sqi.net\/img\/categories_v2\/food\/bakery_","suffix":".png"},"primary":true}],"verified":false,"stats":{"tipCount":0,"usersCount":0,"checkinsCount":0,"visitsCount":0},"beenHere":{"count":0,"lastCheckinExpiredAt":0,"marked":false,"unconfirmedCount":0},"hereNow":{"count":0,"summary":"Nobody here","groups":[]},"referralId":"v-1604765532","venueChains":[],"hasPerk":false},{"id":"4ca87ed4f47ea1433c757521","name":"McDonald's","contact":{},"location":{"address":"Teollisuuskatu 6","crossStreet":"Satamaradankatu","lat":60.19047173482823,"lng":24.95604332848067,"labeledLatLngs":[{"label":"display","lat":60.19047173482823,"lng":24.95604332848067}],"distance":3128,"postalCode":"00500","cc":"FI","city":"Helsinki","state":"Uusimaa","country":"Suomi","formattedAddress":["Teollisuuskatu 6 (Satamaradankatu)","00500 Helsinki","Suomi"]},"categories":[{"id":"4bf58dd8d48988d16e941735","name":"Fast Food Restaurant","pluralName":"Fast Food Restaurants","shortName":"Fast Food","icon":{"prefix":"https:\/\/ss3.4sqi.net\/img\/categories_v2\/food\/fastfood_","suffix":".png"},"primary":true}],"verified":true,"stats":{"tipCount":0,"usersCount":0,"checkinsCount":0,"visitsCount":0},"beenHere":{"count":0,"lastCheckinExpiredAt":0,"marked":false,"unconfirmedCount":0},"hereNow":{"count":0,"summary":"Nobody here","groups":[]},"referralId":"v-1604765532","venueChains":[],"hasPerk":false},{"id":"5393110a498e10da32ccf589","name":"Birgitta","contact":{},"location":{"address":"Hernesaarenranta 3","lat":60.15369586381934,"lng":24.932026395462625,"labeledLatLngs":[{"label":"display","lat":60.15369586381934,"lng":24.932026395462625}],"distance":2093,"postalCode":"00150","cc":"FI","neighborhood":"Hernesaari","city":"Helsinki","state":"Southern Finland","country":"Suomi","formattedAddress":["Hernesaarenranta 3","00150 Helsinki","Suomi"]},"categories":[{"id":"4bf58dd8d48988d16d941735","name":"Café","pluralName":"Cafés","shortName":"Café","icon":{"prefix":"https:\/\/ss3.4sqi.net\/img\/categories_v2\/food\/cafe_","suffix":".png"},"primary":true}],"verified":false,"stats":{"tipCount":0,"usersCount":0,"checkinsCount":0,"visitsCount":0},"beenHere":{"count":0,"lastCheckinExpiredAt":0,"marked":false,"unconfirmedCount":0},"hereNow":{"count":0,"summary":"Nobody here","groups":[]},"referralId":"v-1604765532","venueChains":[],"hasPerk":false},{"id":"5863b61d469aef7d53313c20","name":"Nokkalan Majakka","contact":{},"location":{"address":"Nokkalanniemi 2","lat":60.147974405633164,"lng":24.75542506803377,"labeledLatLngs":[{"label":"display","lat":60.147974405633164,"lng":24.75542506803377}],"distance":9240,"postalCode":"02230","cc":"FI","neighborhood":"Nuottaniemi","city":"Espoo","state":"Uusimaa","country":"Suomi","formattedAddress":["Nokkalanniemi 2","02230 Espoo","Suomi"]},"categories":[{"id":"4bf58dd8d48988d16d941735","name":"Café","pluralName":"Cafés","shortName":"Café","icon":{"prefix":"https:\/\/ss3.4sqi.net\/img\/categories_v2\/food\/cafe_","suffix":".png"},"primary":true}],"verified":false,"stats":{"tipCount":0,"usersCount":0,"checkinsCount":0,"visitsCount":0},"beenHere":{"count":0,"lastCheckinExpiredAt":0,"marked":false,"unconfirmedCount":0},"hereNow":{"count":0,"summary":"Nobody here","groups":[]},"referralId":"v-1604765532","venueChains":[],"hasPerk":false},{"id":"5a3aa3b91bc7040b773e856c","name":"Ravintola Fat Lizard","contact":{},"location":{"address":"Tietotie 1","lat":60.18551588431524,"lng":24.820387065410614,"labeledLatLngs":[{"label":"display","lat":60.18551588431524,"lng":24.820387065410614}],"distance":5537,"postalCode":"02150","cc":"FI","city":"Espoo","state":"Uusimaa","country":"Suomi","formattedAddress":["Tietotie 1","02150 Espoo","Suomi"]},"categories":[{"id":"4bf58dd8d48988d1c4941735","name":"Restaurant","pluralName":"Restaurants","shortName":"Restaurant","icon":{"prefix":"https:\/\/ss3.4sqi.net\/img\/categories_v2\/food\/default_","suffix":".png"},"primary":true}],"verified":true,"stats":{"tipCount":0,"usersCount":0,"checkinsCount":0,"visitsCount":0},"beenHere":{"count":0,"lastCheckinExpiredAt":0,"marked":false,"unconfirmedCount":0},"hereNow":{"count":0,"summary":"Nobody here","groups":[]},"referralId":"v-1604765532","venueChains":[],"hasPerk":false},{"id":"570a618d498e89088ed23d29","name":"Löyly","contact":{},"location":{"address":"Hernesaarenranta 4","lat":60.151961669275025,"lng":24.930416052070704,"labeledLatLngs":[{"label":"display","lat":60.151961669275025,"lng":24.930416052070704}],"distance":2235,"postalCode":"00150","cc":"FI","neighborhood":"Munkkisaari","city":"Helsinki","state":"Uusimaa","country":"Suomi","formattedAddress":["Hernesaarenranta 4","00150 Helsinki","Suomi"]},"categories":[{"id":"58daa1558bbb0b01f18ec1ae","name":"Sauna \/ Steam Room","pluralName":"Saunas \/ Steam Rooms","shortName":"Sauna \/ Steam Room","icon":{"prefix":"https:\/\/ss3.4sqi.net\/img\/categories_v2\/shops\/spa_","suffix":".png"},"primary":true}],"verified":false,"stats":{"tipCount":0,"usersCount":0,"checkinsCount":0,"visitsCount":0},"beenHere":{"count":0,"lastCheckinExpiredAt":0,"marked":false,"unconfirmedCount":0},"hereNow":{"count":1,"summary":"One other person is here","groups":[{"type":"others","name":"Other people here","count":1,"items":[]}]},"referralId":"v-1604765532","venueChains":[],"hasPerk":false},{"id":"500e504890e7cf11e5d77c2a","name":"Teurastamo","contact":{},"location":{"address":"Työpajankatu 2","lat":60.19011175769285,"lng":24.971493723593188,"labeledLatLngs":[{"label":"display","lat":60.19011175769285,"lng":24.971493723593188}],"distance":3761,"postalCode":"00580","cc":"FI","city":"Helsinki","state":"Uusimaa","country":"Suomi","formattedAddress":["Työpajankatu 2","00580 Helsinki","Suomi"]},"categories":[{"id":"4bf58dd8d48988d120951735","name":"Food Court","pluralName":"Food Courts","shortName":"Food Court","icon":{"prefix":"https:\/\/ss3.4sqi.net\/img\/categories_v2\/shops\/food_foodcourt_","suffix":".png"},"primary":true}],"verified":false,"stats":{"tipCount":0,"usersCount":0,"checkinsCount":0,"visitsCount":0},"beenHere":{"count":0,"lastCheckinExpiredAt":0,"marked":false,"unconfirmedCount":0},"hereNow":{"count":0,"summary":"Nobody here","groups":[]},"referralId":"v-1604765532","venueChains":[],"hasPerk":false},{"id":"4d3ff198adb6236aab778340","name":"Tukkutori","contact":{},"location":{"address":"Vanha Talvitie 10","lat":60.19133942084142,"lng":24.974035649860326,"labeledLatLngs":[{"label":"display","lat":60.19133942084142,"lng":24.974035649860326}],"distance":3955,"postalCode":"00580","cc":"FI","city":"Helsinki","state":"Uusimaa","country":"Suomi","formattedAddress":["Vanha Talvitie 10","00580 Helsinki","Suomi"]},"categories":[{"id":"4bf58dd8d48988d120951735","name":"Food Court","pluralName":"Food Courts","shortName":"Food Court","icon":{"prefix":"https:\/\/ss3.4sqi.net\/img\/categories_v2\/shops\/food_foodcourt_","suffix":".png"},"primary":true}],"verified":false,"stats":{"tipCount":0,"usersCount":0,"checkinsCount":0,"visitsCount":0},"beenHere":{"count":0,"lastCheckinExpiredAt":0,"marked":false,"unconfirmedCount":0},"hereNow":{"count":0,"summary":"Nobody here","groups":[]},"referralId":"v-1604765532","venueChains":[],"hasPerk":false},{"id":"51b8254a498ed29158c82900","name":"Little Big Cafe 2nd","contact":{},"location":{"address":"Tyynenmerenkatu 11","lat":60.156055644108726,"lng":24.921020906965268,"labeledLatLngs":[{"label":"display","lat":60.156055644108726,"lng":24.921020906965268}],"distance":1654,"postalCode":"00220","cc":"FI","city":"Helsinki","state":"Uusimaa","country":"Suomi","formattedAddress":["Tyynenmerenkatu 11","00220 Helsinki","Suomi"]},"categories":[{"id":"4bf58dd8d48988d16d941735","name":"Café","pluralName":"Cafés","shortName":"Café","icon":{"prefix":"https:\/\/ss3.4sqi.net\/img\/categories_v2\/food\/cafe_","suffix":".png"},"primary":true}],"verified":false,"stats":{"tipCount":0,"usersCount":0,"checkinsCount":0,"visitsCount":0},"beenHere":{"count":0,"lastCheckinExpiredAt":0,"marked":false,"unconfirmedCount":0},"hereNow":{"count":0,"summary":"Nobody here","groups":[]},"referralId":"v-1604765532","venueChains":[],"hasPerk":false},{"id":"5f61dfc30bf2df5fc0111818","name":"Pihka","contact":{},"location":{"address":"Lars Sonckin kaari 12","lat":60.21126,"lng":24.817705,"labeledLatLngs":[{"label":"display","lat":60.21126,"lng":24.817705}],"distance":7064,"postalCode":"02600","cc":"FI","city":"Espoo","state":"Uusimaa","country":"Suomi","formattedAddress":["Lars Sonckin kaari 12","02600 Espoo","Suomi"]},"categories":[{"id":"4bf58dd8d48988d1c4941735","name":"Restaurant","pluralName":"Restaurants","shortName":"Restaurant","icon":{"prefix":"https:\/\/ss3.4sqi.net\/img\/categories_v2\/food\/default_","suffix":".png"},"primary":true}],"verified":false,"stats":{"tipCount":0,"usersCount":0,"checkinsCount":0,"visitsCount":0},"beenHere":{"count":0,"lastCheckinExpiredAt":0,"marked":false,"unconfirmedCount":0},"hereNow":{"count":0,"summary":"Nobody here","groups":[]},"referralId":"v-1604765532","venueChains":[],"hasPerk":false},{"id":"5c1395cb336273002c5425cd","name":"MUJI","contact":{},"location":{"address":"Kauppakeskus Kamppi, 4. krs","crossStreet":"Urho Kekkosen katu 1","lat":60.16940332969905,"lng":24.933582320809364,"labeledLatLngs":[{"label":"display","lat":60.16940332969905,"lng":24.933582320809364}],"distance":990,"postalCode":"00100","cc":"FI","city":"Helsinki","state":"Uusimaa","country":"Suomi","formattedAddress":["Kauppakeskus Kamppi, 4. krs (Urho Kekkosen katu 1)","00100 Helsinki","Suomi"]},"categories":[{"id":"4bf58dd8d48988d103951735","name":"Clothing Store","pluralName":"Clothing Stores","shortName":"Apparel","icon":{"prefix":"https:\/\/ss3.4sqi.net\/img\/categories_v2\/shops\/apparel_","suffix":".png"},"primary":true}],"verified":false,"stats":{"tipCount":0,"usersCount":0,"checkinsCount":0,"visitsCount":0},"beenHere":{"count":0,"lastCheckinExpiredAt":0,"marked":false,"unconfirmedCount":0},"hereNow":{"count":2,"summary":"2 people are here","groups":[{"type":"others","name":"Other people here","count":2,"items":[]}]},"referralId":"v-1604765532","venueChains":[],"hasPerk":false},{"id":"4adcdb22f964a5203a6021e3","name":"Cafe Regatta","contact":{},"location":{"address":"Merikannontie 8","lat":60.18014473064337,"lng":24.911773243717573,"labeledLatLngs":[{"label":"display","lat":60.18014473064337,"lng":24.911773243717573}],"distance":1075,"postalCode":"00260","cc":"FI","neighborhood":"Taka-Töölö","city":"Helsinki","state":"Uusimaa","country":"Suomi","formattedAddress":["Merikannontie 8","00260 Helsinki","Suomi"]},"categories":[{"id":"4bf58dd8d48988d16d941735","name":"Café","pluralName":"Cafés","shortName":"Café","icon":{"prefix":"https:\/\/ss3.4sqi.net\/img\/categories_v2\/food\/cafe_","suffix":".png"},"primary":true}],"verified":false,"stats":{"tipCount":0,"usersCount":0,"checkinsCount":0,"visitsCount":0},"beenHere":{"count":0,"lastCheckinExpiredAt":0,"marked":false,"unconfirmedCount":0},"hereNow":{"count":0,"summary":"Nobody here","groups":[]},"referralId":"v-1604765532","venueChains":[],"hasPerk":false},{"id":"4cb9c889558576b09cf0480e","name":"Tuomarinkylän kartano","contact":{},"location":{"address":"Kartanomuseontie 7","lat":60.25555318624118,"lng":24.970568264459754,"labeledLatLngs":[{"label":"display","lat":60.25555318624118,"lng":24.970568264459754}],"distance":9918,"postalCode":"00690","cc":"FI","city":"Helsinki","state":"Uusimaa","country":"Suomi","formattedAddress":["Kartanomuseontie 7","00690 Helsinki","Suomi"]},"categories":[{"id":"4bf58dd8d48988d15b941735","name":"Farm","pluralName":"Farms","shortName":"Farm","icon":{"prefix":"https:\/\/ss3.4sqi.net\/img\/categories_v2\/parks_outdoors\/farm_","suffix":".png"},"primary":true}],"verified":false,"stats":{"tipCount":0,"usersCount":0,"checkinsCount":0,"visitsCount":0},"beenHere":{"count":0,"lastCheckinExpiredAt":0,"marked":false,"unconfirmedCount":0},"hereNow":{"count":0,"summary":"Nobody here","groups":[]},"referralId":"v-1604765532","venueChains":[],"hasPerk":false},{"id":"584043c8f63c544367d8161b","name":"Kampin Kortteli","contact":{},"location":{"address":"Urho Kekkosen katu 1","crossStreet":"Kauppakeskus Kamppi, 5. krs","lat":60.16947237515274,"lng":24.93355234020608,"labeledLatLngs":[{"label":"display","lat":60.16947237515274,"lng":24.93355234020608}],"distance":988,"postalCode":"00100","cc":"FI","city":"Helsinki","state":"Uusimaa","country":"Suomi","formattedAddress":["Urho Kekkosen katu 1 (Kauppakeskus Kamppi, 5. krs)","00100 Helsinki","Suomi"]},"categories":[{"id":"4bf58dd8d48988d120951735","name":"Food Court","pluralName":"Food Courts","shortName":"Food Court","icon":{"prefix":"https:\/\/ss3.4sqi.net\/img\/categories_v2\/shops\/food_foodcourt_","suffix":".png"},"primary":true}],"verified":false,"stats":{"tipCount":0,"usersCount":0,"checkinsCount":0,"visitsCount":0},"beenHere":{"count":0,"lastCheckinExpiredAt":0,"marked":false,"unconfirmedCount":0},"hereNow":{"count":0,"summary":"Nobody here","groups":[]},"referralId":"v-1604765532","venueChains":[],"hasPerk":false},{"id":"4bf0d98e17880f4752c32937","name":"Hietalahden kauppahalli","contact":{},"location":{"address":"Lönnrotinkatu 34","lat":60.1628377857665,"lng":24.929606896213976,"labeledLatLngs":[{"label":"display","lat":60.1628377857665,"lng":24.929606896213976}],"distance":1159,"postalCode":"00180","cc":"FI","neighborhood":"Kamppi","city":"Helsinki","state":"Uusimaa","country":"Suomi","formattedAddress":["Lönnrotinkatu 34","00180 Helsinki","Suomi"]},"categories":[{"id":"4bf58dd8d48988d120951735","name":"Food Court","pluralName":"Food Courts","shortName":"Food Court","icon":{"prefix":"https:\/\/ss3.4sqi.net\/img\/categories_v2\/shops\/food_foodcourt_","suffix":".png"},"primary":true}],"verified":false,"stats":{"tipCount":0,"usersCount":0,"checkinsCount":0,"visitsCount":0},"beenHere":{"count":0,"lastCheckinExpiredAt":0,"marked":false,"unconfirmedCount":0},"hereNow":{"count":1,"summary":"One other person is here","groups":[{"type":"others","name":"Other people here","count":1,"items":[]}]},"referralId":"v-1604765532","venueChains":[],"hasPerk":false},{"id":"4cda4b4fcea2224b92d07e4c","name":"Kahvila Sävy","contact":{},"location":{"address":"Aleksis Kiven katu 12","crossStreet":"corner of Harjukatu & Aleksis Kiven katu","lat":60.189254,"lng":24.95856,"labeledLatLngs":[{"label":"display","lat":60.189254,"lng":24.95856}],"distance":3138,"postalCode":"00500","cc":"FI","neighborhood":"Harju, Helsinki","city":"Helsinki","state":"Uusimaa","country":"Suomi","formattedAddress":["Aleksis Kiven katu 12 (corner of Harjukatu & Aleksis Kiven katu)","00500 Helsinki","Suomi"]},"categories":[{"id":"4bf58dd8d48988d16d941735","name":"Café","pluralName":"Cafés","shortName":"Café","icon":{"prefix":"https:\/\/ss3.4sqi.net\/img\/categories_v2\/food\/cafe_","suffix":".png"},"primary":true}],"verified":true,"stats":{"tipCount":0,"usersCount":0,"checkinsCount":0,"visitsCount":0},"beenHere":{"count":0,"lastCheckinExpiredAt":0,"marked":false,"unconfirmedCount":0},"venuePage":{"id":"34299880"},"hereNow":{"count":0,"summary":"Nobody here","groups":[]},"referralId":"v-1604765532","venueChains":[],"hasPerk":false},{"id":"4e2eab9222717d70585813c3","name":"Kahvila-Ravintola Wanha Pehtoori","contact":{},"location":{"address":"Haltialan tila","crossStreet":"Laamannintie 17","lat":60.27544012317452,"lng":24.95433109109707,"labeledLatLngs":[{"label":"display","lat":60.27544012317452,"lng":24.95433109109707}],"distance":11851,"postalCode":"00690","cc":"FI","city":"Helsinki","state":"Uusimaa","country":"Suomi","formattedAddress":["Haltialan tila (Laamannintie 17)","00690 Helsinki","Suomi"]},"categories":[{"id":"4bf58dd8d48988d1c4941735","name":"Restaurant","pluralName":"Restaurants","shortName":"Restaurant","icon":{"prefix":"https:\/\/ss3.4sqi.net\/img\/categories_v2\/food\/default_","suffix":".png"},"primary":true}],"verified":false,"stats":{"tipCount":0,"usersCount":0,"checkinsCount":0,"visitsCount":0},"beenHere":{"count":0,"lastCheckinExpiredAt":0,"marked":false,"unconfirmedCount":0},"hereNow":{"count":0,"summary":"Nobody here","groups":[]},"referralId":"v-1604765532","venueChains":[],"hasPerk":false}],"confident":false}}