{"meta":{"code":200,"requestId":"5fa6c723219c38752772669d"},"response":{"venues":[{"id":"4adcdb24f964a5200c6121e3","name":"Mount Everest","contact":{},"location":{"address":"Lapinlahdenkatu 17","lat":60.167004,"lng":24.927464,"labeledLatLngs":[{"label":"display","lat":60.167004,"lng":24.927464}],"distance":762,"postalCode":"00180","cc":"FI","city":"Helsinki","state":"Uusimaa","country":"Suomi","formattedAddress":["Lapinlahdenkatu 17","00180 Helsinki","Suomi"]},"categories":[{"id":"52e81612bcbc57f1066b79fb","name":"Himalayan Restaurant","pluralName":"Himalayan Restaurants","shortName":"Himalayan","icon":{"prefix":"https:\/\/ss3.4sqi.net\/img\/categories_v2\/food\/default_","suffix":".png"},"primary":true}],"verified":false,"stats":{"tipCount":0,"usersCount":0,"checkinsCount":0,"visitsCount":0},"beenHere":{"count":0,"lastCheckinExpiredAt":0,"marked":false,"unconfirmedCount":0},"hereNow":{"count":0,"summary":"Nobody here","groups":[]},"referralId":"v-1604765475","venueChains":[],"hasPerk":false},{"id":"5d1b105ab55cb800231261f6","name":"Paisano","contact":{},"location":{"address":"Korkeavuorenkatu 45","lat":60.166469,"lng":24.945982,"labeledLatLngs":[{"label":"display","lat":60.166469,"lng":24.945982}],"distance":1732,"postalCode":"00130","cc":"FI","city":"Helsinki","state":"Uusimaa","country":"Suomi","formattedAddress":["Korkeavuorenkatu 45","00130 Helsinki","Suomi"]},"categories":[{"id":"4eb1bd1c3b7b55596b4a748f","name":"Filipino Restaurant","pluralName":"Filipino Restaurants","shortName":"Filipino","icon":{"prefix":"https:\/\/ss3.4sqi.net\/img\/categories_v2\/food\/filipino_","suffix":".png"},"primary":true}],"verified":false,"stats":{"tipCount":0,"usersCount":0,"checkinsCount":0,"visitsCount":0},"beenHere":{"count":0,"lastCheckinExpiredAt":0,"marked":false,"unconfirmedCount":0},"hereNow":{"count":0,"summary":"Nobody here","groups":[]},"referralId":"v-1604765475","venueChains":[],"hasPerk":false},{"id":"5e1ee57cde09480007df6de8","name":"Lucy in the Sky","contact":{},"location":{"lat":60.175584,"lng":24.830895,"labeledLatLngs":[{"label":"display","lat":60.175584,"lng":24.830895}],"distance":4736,"postalCode":"02150","cc":"FI","city":"Espoo","state":"Uusimaa","country":"Suomi","formattedAddress":["02150 Espoo","Suomi"]},"categories":[{"id":"4bf58dd8d48988d142941735","name":"Asian Restaurant","pluralName":"Asian Restaurants","shortName":"Asian","icon":{"prefix":"https:\/\/ss3.4sqi.net\/img\/categories_v2\/food\/asian_","suffix":".png"},"primary":true}],"verified":false,"stats":{"tipCount":0,"usersCount":0,"checkinsCount":0,"visitsCount":0},"beenHere":{"count":0,"lastCheckinExpiredAt":0,"marked":false,"unconfirmedCount":0},"hereNow":{"count":0,"summary":"Nobody here","groups":[]},"referralId":"v-1604765475","venueChains":[],"hasPerk":false},{"id":"5ebd30da863e0900078de28f","name":"SameSame - But Different","contact":{},"location":{"address":"Tehtaankatu 25","lat":60.15797,"lng":24.935805,"labeledLatLngs":[{"label":"display","lat":60.15797,"lng":24.935805}],"distance":1796,"postalCode":"00150","cc":"FI","city":"Helsinki","state":"Uusimaa","country":"Suomi","formattedAddress":["Tehtaankatu 25","00150 Helsinki","Suomi"]},"categories":[{"id":"4bf58dd8d48988d142941735","name":"Asian Restaurant","pluralName":"Asian Restaurants","shortName":"Asian","icon":{"prefix":"https:\/\/ss3.4sqi.net\/img\/categories_v2\/food\/asian_","suffix":".png"},"primary":true}],"verified":false,"stats":{"tipCount":0,"usersCount":0,"checkinsCount":0,"visitsCount":0},"beenHere":{"count":0,"lastCheckinExpiredAt":0,"marked":false,"unconfirmedCount":0},"hereNow":{"count":0,"summary":"Nobody here","groups":[]},"referralId":"v-1604765475","venueChains":[],"hasPerk":false},{"id":"5d5431398c5572000864b7e5","name":"Phở Việt - Vietnamese Kitchen","contact":{},"location":{"address":"Yrjönkatu 30","crossStreet":"Eerikinkatu","lat":60.167864,"lng":24.937574,"labeledLatLngs":[{"label":"display","lat":60.167864,"lng":24.937574}],"distance":1242,"postalCode":"00100","cc":"FI","neighborhood":"Kamppi","city":"Helsinki","state":"Uusimaa","country":"Suomi","formattedAddress":["Yrjönkatu 30 (Eerikinkatu)","00100 Helsinki","Suomi"]},"categories":[{"id":"4bf58dd8d48988d14a941735","name":"Vietnamese Restaurant","pluralName":"Vietnamese Restaurants","shortName":"Vietnamese","icon":{"prefix":"https:\/\/ss3.4sqi.net\/img\/categories_v2\/food\/vietnamese_","suffix":".png"},"primary":true}],"verified":false,"stats":{"tipCount":0,"usersCount":0,"checkinsCount":0,"visitsCount":0},"beenHere":{"count":0,"lastCheckinExpiredAt":0,"marked":false,"unconfirmedCount":0},"hereNow":{"count":0,"summary":"Nobody here","groups":[]},"referralId":"v-1604765475","venueChains":[],"hasPerk":false},{"id":"5d388af8d08509000886a098","name":"Itsudemo","contact":{},"location":{"address":"Nihtisilta 4","lat":60.20721533278925,"lng":24.749409779906273,"labeledLatLngs":[{"label":"display","lat":60.20721533278925,"lng":24.749409779906273}],"distance":10069,"postalCode":"02630","cc":"FI","city":"Espoo","state":"Uusimaa","country":"Suomi","formattedAddress":["Nihtisilta 4","02630 Espoo","Suomi"]},"categories":[{"id":"4bf58dd8d48988d1d2941735","name":"Sushi Restaurant","pluralName":"Sushi Restaurants","shortName":"Sushi","icon":{"prefix":"https:\/\/ss3.4sqi.net\/img\/categories_v2\/food\/sushi_","suffix":".png"},"primary":true}],"verified":false,"stats":{"tipCount":0,"usersCount":0,"checkinsCount":0,"visitsCount":0},"beenHere":{"count":0,"lastCheckinExpiredAt":0,"marked":false,"unconfirmedCount":0},"hereNow":{"count":0,"summary":"Nobody here","groups":[]},"referralId":"v-1604765475","venueChains":[],"hasPerk":false},{"id":"5dbff39a9a3f6800088e45bf","name":"Brokadi","contact":{},"location":{"address":"Mall of Tripla","crossStreet":"Fredikanterassi 1","lat":60.198784,"lng":24.932745,"labeledLatLngs":[{"label":"display","lat":60.198784,"lng":24.932745}],"distance":3262,"postalCode":"00520","cc":"FI","city":"Helsinki","state":"Uusimaa","country":"Suomi","formattedAddress":["Mall of Tripla (Fredikanterassi 1)","00520 Helsinki","Suomi"]},"categories":[{"id":"4bf58dd8d48988d145941735","name":"Chinese Restaurant","pluralName":"Chinese Restaurants","shortName":"Chinese","icon":{"prefix":"https:\/\/ss3.4sqi.net\/img\/categories_v2\/food\/asian_","suffix":".png"},"primary":true}],"verified":false,"stats":{"tipCount":0,"usersCount":0,"checkinsCount":0,"visitsCount":0},"beenHere":{"count":0,"lastCheckinExpiredAt":0,"marked":false,"unconfirmedCount":0},"hereNow":{"count":0,"summary":"Nobody here","groups":[]},"referralId":"v-1604765475","venueChains":[],"hasPerk":false},{"id":"5da990c6a830360007c78a26","name":"Bangkok 9","contact":{},"location":{"address":"Mall of Tripla, 3. krs","crossStreet":"Fredikanterassi 1","lat":60.198657982312945,"lng":24.930054545402527,"labeledLatLngs":[{"label":"display","lat":60.198657982312945,"lng":24.930054545402527}],"distance":3209,"postalCode":"00520","cc":"FI","city":"Helsinki","state":"Uusimaa","country":"Suomi","formattedAddress":["Mall of Tripla, 3. krs (Fredikanterassi 1)","00520 Helsinki","Suomi"]},"categories":[{"id":"4bf58dd8d48988d149941735","name":"Thai Restaurant","pluralName":"Thai Restaurants","shortName":"Thai","icon":{"prefix":"https:\/\/ss3.4sqi.net\/img\/categories_v2\/food\/thai_","suffix":".png"},"primary":true}],"verified":false,"stats":{"tipCount":0,"usersCount":0,"checkinsCount":0,"visitsCount":0},"beenHere":{"count":0,"lastCheckinExpiredAt":0,"marked":false,"unconfirmedCount":0},"hereNow":{"count":0,"summary":"Nobody here","groups":[]},"referralId":"v-1604765475","venueChains":[],"hasPerk":false},{"id":"5baa7261c21cb1002c829db7","name":"Haru+","contact":{},"location":{"address":"Annankatu 6","lat":60.163629,"lng":24.941184,"labeledLatLngs":[{"label":"display","lat":60.163629,"lng":24.941184}],"distance":1607,"postalCode":"00120","cc":"FI","city":"Helsinki","state":"Uusimaa","country":"Suomi","formattedAddress":["Annankatu 6","00120 Helsinki","Suomi"]},"categories":[{"id":"4bf58dd8d48988d1d2941735","name":"Sushi Restaurant","pluralName":"Sushi Restaurants","shortName":"Sushi","icon":{"prefix":"https:\/\/ss3.4sqi.net\/img\/categories_v2\/food\/sushi_","suffix":".png"},"primary":true}],"verified":false,"stats":{"tipCount":0,"usersCount":0,"checkinsCount":0,"visitsCount":0},"beenHere":{"count":0,"lastCheckinExpiredAt":0,"marked":false,"unconfirmedCount":0},"hereNow":{"count":0,"summary":"Nobody here","groups":[]},"referralId":"v-1604765475","venueChains":[],"hasPerk":false},{"id":"5f35725aae562379c5feca07","name":"Restaurant Lily Lee","contact":{},"location":{"address":"Erottajankatu 4","lat":60.165908,"lng":24.943775,"labeledLatLngs":[{"label":"display","lat":60.165908,"lng":24.943775}],"distance":1634,"postalCode":"00130","cc":"FI","city":"Helsinki","state":"Uusimaa","country":"Suomi","formattedAddress":["Erottajankatu 4","00130 Helsinki","Suomi"]},"categories":[{"id":"4bf58dd8d48988d142941735","name":"Asian Restaurant","pluralName":"Asian Restaurants","shortName":"Asian","icon":{"prefix":"https:\/\/ss3.4sqi.net\/img\/categories_v2\/food\/asian_","suffix":".png"},"primary":true}],"verified":false,"stats":{"tipCount":0,"usersCount":0,"checkinsCount":0,"visitsCount":0},"beenHere":{"count":0,"lastCheckinExpiredAt":0,"marked":false,"unconfirmedCount":0},"hereNow":{"count":0,"summary":"Nobody here","groups":[]},"referralId":"v-1604765475","venueChains":[],"hasPerk":false},{"id":"5f27e35f8101276da0e91ef6","name":"Loi Loi Rooftop & Distillery","contact":{},"location":{"address":"Konepajankuja 5 C 6A","crossStreet":"Sturenkatu","lat":60.19181869475818,"lng":24.949587732553482,"labeledLatLngs":[{"label":"display","lat":60.19181869475818,"lng":24.949587732553482}],"distance":3001,"postalCode":"00510","cc":"FI","city":"Helsinki","state":"Uusimaa","country":"Suomi","formattedAddress":["Konepajankuja 5 C 6A (Sturenkatu)","00510 Helsinki","Suomi"]},"categories":[{"id":"4bf58dd8d48988d142941735","name":"Asian Restaurant","pluralName":"Asian Restaurants","shortName":"Asian","icon":{"prefix":"https:\/\/ss3.4sqi.net\/img\/categories_v2\/food\/asian_","suffix":".png"},"primary":true}],"verified":false,"stats":{"tipCount":0,"usersCount":0,"checkinsCount":0,"visitsCount":0},"beenHere":{"count":0,"lastCheckinExpiredAt":0,"marked":false,"unconfirmedCount":0},"hereNow":{"count":0,"summary":"Nobody here","groups":[]},"referralId":"v-1604765475","venueChains":[],"hasPerk":false},{"id":"5f6b08422484fa3b4811109e","name":"Sizzle Station","contact":{},"location":{"lat":60.198635,"lng":24.93009,"labeledLatLngs":[{"label":"display","lat":60.198635,"lng":24.93009}],"distance":3207,"postalCode":"00520","cc":"FI","city":"Helsinki","state":"Uusimaa","country":"Suomi","formattedAddress":["00520 Helsinki","Suomi"]},"categories":[{"id":"4bf58dd8d48988d111941735","name":"Japanese Restaurant","pluralName":"Japanese Restaurants","shortName":"Japanese","icon":{"prefix":"https:\/\/ss3.4sqi.net\/img\/categories_v2\/food\/japanese_","suffix":".png"},"primary":true}],"verified":false,"stats":{"tipCount":0,"usersCount":0,"checkinsCount":0,"visitsCount":0},"beenHere":{"count":0,"lastCheckinExpiredAt":0,"marked":false,"unconfirmedCount":0},"hereNow":{"count":0,"summary":"Nobody here","groups":[]},"referralId":"v-1604765475","venueChains":[],"hasPerk":false},{"id":"5ee116c4d3067b4e75b8015e","name":"The Other One","contact":{},"location":{"lat":60.169749,"lng":24.948025,"labeledLatLngs":[{"label":"display","lat":60.169749,"lng":24.948025}],"distance":1783,"postalCode":"00100","cc":"FI","city":"Helsinki","state":"Uusimaa","country":"Suomi","formattedAddress":["00100 Helsinki","Suomi"]},"categories":[{"id":"4bf58dd8d48988d149941735","name":"Thai Restaurant","pluralName":"Thai Restaurants","shortName":"Thai","icon":{"prefix":"https:\/\/ss3.4sqi.net\/img\/categories_v2\/food\/thai_","suffix":".png"},"primary":true}],"verified":false,"stats":{"tipCount":0,"usersCount":0,"checkinsCount":0,"visitsCount":0},"beenHere":{"count":0,"lastCheckinExpiredAt":0,"marked":false,"unconfirmedCount":0},"hereNow":{"count":0,"summary":"Nobody here","groups":[]},"referralId":"v-1604765475","venueChains":[],"hasPerk":false},{"id":"5f4f5ffdef76153d7f12d1e8","name":"Kung Food Panda","contact":{},"location":{"lat":60.206688,"lng":25.145899,"labeledLatLngs":[{"label":"display","lat":60.206688,"lng":25.145899}],"distance":13345,"postalCode":"00980","cc":"FI","city":"Helsinki","state":"Uusimaa","country":"Suomi","formattedAddress":["00980 Helsinki","Suomi"]},"categories":[{"id":"4bf58dd8d48988d142941735","name":"Asian Restaurant","pluralName":"Asian Restaurants","shortName":"Asian","icon":{"prefix":"https:\/\/ss3.4sqi.net\/img\/categories_v2\/food\/asian_","suffix":".png"},"primary":true}],"verified":false,"stats":{"tipCount":0,"usersCount":0,"checkinsCount":0,"visitsCount":0},"beenHere":{"count":0,"lastCheckinExpiredAt":0,"marked":false,"unconfirmedCount":0},"hereNow":{"count":0,"summary":"Nobody here","groups":[]},"referralId":"v-1604765475","venueChains":[],"hasPerk":false},{"id":"5f5b8cdd7e7a2b5899a2d916","name":"Bistro Koi","contact":{},"location":{"address":"Hämeentie 58-60","lat":60.187929,"lng":24.963163,"labeledLatLngs":[{"label":"display","lat":60.187929,"lng":24.963163}],"distance":3245,"postalCode":"00500","cc":"FI","city":"Helsinki","state":"Uusimaa","country":"Suomi","formattedAddress":["Hämeentie 58-60","00500 Helsinki","Suomi"]},"categories":[{"id":"4bf58dd8d48988d111941735","name":"Japanese Restaurant","pluralName":"Japanese Restaurants","shortName":"Japanese","icon":{"prefix":"https:\/\/ss3.4sqi.net\/img\/categories_v2\/food\/japanese_","suffix":".png"},"primary":true}],"verified":false,"stats":{"tipCount":0,"usersCount":0,"checkinsCount":0,"visitsCount":0},"beenHere":{"count":0,"lastCheckinExpiredAt":0,"marked":false,"unconfirmedCount":0},"hereNow":{"count":0,"summary":"Nobody here","groups":[]},"referralId":"v-1604765475","venueChains":[],"hasPerk":false},{"id":"5e888789e177c700081ab72e","name":"Oishi 18","contact":{},"location":{"address":"Vaasankatu 18","lat":60.188377,"lng":24.954393,"labeledLatLngs":[{"label":"display","lat":60.188377,"lng":24.954393}],"distance":2901,"postalCode":"00500","cc":"FI","city":"Helsinki","state":"Uusimaa","country":"Suomi","formattedAddress":["Vaasankatu 18","00500 Helsinki","Suomi"]},"categories":[{"id":"4bf58dd8d48988d1d2941735","name":"Sushi Restaurant","pluralName":"Sushi Restaurants","shortName":"Sushi","icon":{"prefix":"https:\/\/ss3.4sqi.net\/img\/categories_v2\/food\/sushi_","suffix":".png"},"primary":true}],"verified":false,"stats":{"tipCount":0,"usersCount":0,"checkinsCount":0,"visitsCount":0},"beenHere":{"count":0,"lastCheckinExpiredAt":0,"marked":false,"unconfirmedCount":0},"hereNow":{"count":0,"summary":"Nobody here","groups":[]},"referralId":"v-1604765475","venueChains":[],"hasPerk":false},{"id":"551bc335498e1d14376ac9ec","name":"Sushi Forest","contact":{},"location":{"address":"Hämeentie 32","lat":60.18377406357533,"lng":24.958891190678134,"labeledLatLngs":[{"label":"display","lat":60.18377406357533,"lng":24.958891190678134}],"distance":2790,"cc":"FI","city":"Helsinki","state":"Uusimaa","country":"Suomi","formattedAddress":["Hämeentie 32","Helsinki","Suomi"]},"categories":[{"id":"4bf58dd8d48988d1d2941735","name":"Sushi Restaurant","pluralName":"Sushi Restaurants","shortName":"Sushi","icon":{"prefix":"https:\/\/ss3.4sqi.net\/img\/categories_v2\/food\/sushi_","suffix":".png"},"primary":true}],"verified":false,"stats":{"tipCount":0,"usersCount":0,"checkinsCount":0,"visitsCount":0},"beenHere":{"count":0,"lastCheckinExpiredAt":0,"marked":false,"unconfirmedCount":0},"hereNow":{"count":0,"summary":"Nobody here","groups":[]},"referralId":"v-1604765475","venueChains":[],"hasPerk":false},{"id":"4be3e20af07b0f47150af943","name":"Restaurant Ju Fu","contact":{},"location":{"address":"Nilsaksenpolku 2","lat":60.28355638860682,"lng":24.971971848384293,"labeledLatLngs":[{"label":"display","lat":60.28355638860682,"lng":24.971971848384293}],"distance":12940,"postalCode":"01510","cc":"FI","city":"Vantaa","state":"Uusimaa","country":"Suomi","formattedAddress":["Nilsaksenpolku 2","01510 Vantaa","Suomi"]},"categories":[{"id":"4bf58dd8d48988d145941735","name":"Chinese Restaurant","pluralName":"Chinese Restaurants","shortName":"Chinese","icon":{"prefix":"https:\/\/ss3.4sqi.net\/img\/categories_v2\/food\/asian_","suffix":".png"},"primary":true}],"verified":false,"stats":{"tipCount":0,"usersCount":0,"checkinsCount":0,"visitsCount":0},"beenHere":{"count":0,"lastCheckinExpiredAt":0,"marked":false,"unconfirmedCount":0},"hereNow":{"count":0,"summary":"Nobody here","groups":[]},"referralId":"v-1604765475","venueChains":[],"hasPerk":false},{"id":"5915e45d2be4255698a1d106","name":"Kampai3","contact":{},"location":{"address":"Kolmas linja 18","lat":60.183277601253984,"lng":24.94707676771042,"labeledLatLngs":[{"label":"display","lat":60.183277601253984,"lng":24.94707676771042}],"distance":2223,"postalCode":"00530","cc":"FI","neighborhood":"Linjat","city":"Helsinki","state":"Uusimaa","country":"Suomi","formattedAddress":["Kolmas linja 18","00530 Helsinki","Suomi"]},"categories":[{"id":"4bf58dd8d48988d111941735","name":"Japanese Restaurant","pluralName":"Japanese Restaurants","shortName":"Japanese","icon":{"prefix":"https:\/\/ss3.4sqi.net\/img\/categories_v2\/food\/japanese_","suffix":".png"},"primary":true}],"verified":false,"stats":{"tipCount":0,"usersCount":0,"checkinsCount":0,"visitsCount":0},"beenHere":{"count":0,"lastCheckinExpiredAt":0,"marked":false,"unconfirmedCount":0},"hereNow":{"count":0,"summary":"Nobody here","groups":[]},"referralId":"v-1604765475","venueChains":[],"hasPerk":false},{"id":"5f5624627c3eba1a6424b8f9","name":"hanko sushi citykäytävä","contact":{},"location":{"lat":60.168902,"lng":24.941768,"labeledLatLngs":[{"label":"display","lat":60.168902,"lng":24.941768}],"distance":1447,"postalCode":"00100","cc":"FI","city":"Helsinki","state":"Uusimaa","country":"Suomi","formattedAddress":["00100 Helsinki","Suomi"]},"categories":[{"id":"4bf58dd8d48988d111941735","name":"Japanese Restaurant","pluralName":"Japanese Restaurants","shortName":"Japanese","icon":{"prefix":"https:\/\/ss3.4sqi.net\/img\/categories_v2\/food\/japanese_","suffix":".png"},"primary":true}],"verified":false,"stats":{"tipCount":0,"usersCount":0,"checkinsCount":0,"visitsCount":0},"beenHere":{"count":0,"lastCheckinExpiredAt":0,"marked":false,"unconfirmedCount":0},"hereNow":{"count":0,"summary":"Nobody here","groups":[]},"referralId":"v-1604765475","venueChains":[],"hasPerk":false},{"id":"5a26cb55646e3812000a9028","name":"Bangkok9","contact":{},"location":{"address":"Kauppakeskus Citycenter","crossStreet":"Kaivokatu 9, 2. krs.","lat":60.17008935431621,"lng":24.94162450630927,"labeledLatLngs":[{"label":"display","lat":60.17008935431621,"lng":24.94162450630927}],"distance":1427,"postalCode":"00100","cc":"FI","city":"Helsinki","state":"Uusimaa","country":"Suomi","formattedAddress":["Kauppakeskus Citycenter (Kaivokatu 9, 2. krs.)","00100 Helsinki","Suomi"]},"categories":[{"id":"4bf58dd8d48988d149941735","name":"Thai Restaurant","pluralName":"Thai Restaurants","shortName":"Thai","icon":{"prefix":"https:\/\/ss3.4sqi.net\/img\/categories_v2\/food\/thai_","suffix":".png"},"primary":true}],"verified":false,"stats":{"tipCount":0,"usersCount":0,"checkinsCount":0,"visitsCount":0},"beenHere":{"count":0,"lastCheckinExpiredAt":0,"marked":false,"unconfirmedCount":0},"hereNow":{"count":0,"summary":"Nobody here","groups":[]},"referralId":"v-1604765475","venueChains":[],"hasPerk":false},{"id":"5cf50f2ac03635002ccdb4c3","name":"Biáng!","contact":{},"location":{"address":"Kauppakeskus Citycenter, 2. krs","crossStreet":"Kaivokatu 8","lat":60.170032,"lng":24.941658,"labeledLatLngs":[{"label":"display","lat":60.170032,"lng":24.941658}],"distance":1429,"postalCode":"00100","cc":"FI","city":"Helsinki","state":"Uusimaa","country":"Suomi","formattedAddress":["Kauppakeskus Citycenter, 2. krs (Kaivokatu 8)","00100 Helsinki","Suomi"]},"categories":[{"id":"4bf58dd8d48988d145941735","name":"Chinese Restaurant","pluralName":"Chinese Restaurants","shortName":"Chinese","icon":{"prefix":"https:\/\/ss3.4sqi.net\/img\/categories_v2\/food\/asian_","suffix":".png"},"primary":true}],"verified":false,"stats":{"tipCount":0,"usersCount":0,"checkinsCount":0,"visitsCount":0},"beenHere":{"count":0,"lastCheckinExpiredAt":0,"marked":false,"unconfirmedCount":0},"hereNow":{"count":1,"summary":"One other person is here","groups":[{"type":"others","name":"Other people here","count":1,"items":[]}]},"referralId":"v-1604765475","venueChains":[],"hasPerk":false},{"id":"5bc066201f8ed6002ce11f8f","name":"Lie Mi","contact":{},"location":{"address":"Hämeentie 19","crossStreet":"Käenkuja","lat":60.18594492358254,"lng":24.961501718946447,"labeledLatLngs":[{"label":"display","lat":60.18594492358254,"lng":24.961501718946447}],"distance":3042,"postalCode":"00500","cc":"FI","city":"Helsinki","state":"Uusimaa","country":"Suomi","formattedAddress":["Hämeentie 19 (Käenkuja)","00500 Helsinki","Suomi"]},"categories":[{"id":"4bf58dd8d48988d14a941735","name":"Vietnamese Restaurant","pluralName":"Vietnamese Restaurants","shortName":"Vietnamese","icon":{"prefix":"https:\/\/ss3.4sqi.net\/img\/categories_v2\/food\/vietnamese_","suffix":".png"},"primary":true}],"verified":false,"stats":{"tipCount":0,"usersCount":0,"checkinsCount":0,"visitsCount":0},"beenHere":{"count":0,"lastCheckinExpiredAt":0,"marked":false,"unconfirmedCount":0},"hereNow":{"count":0,"summary":"Nobody here","groups":[]},"referralId":"v-1604765475","venueChains":[],"hasPerk":false},{"id":"4af93b0ef964a5202d1122e3","name":"New Bamboo Center","contact":{},"location":{"address":"Annankatu 29","lat":60.16793995031053,"lng":24.935412619610446,"labeledLatLngs":[{"label":"display","lat":60.16793995031053,"lng":24.935412619610446}],"distance":1124,"postalCode":"00100","cc":"FI","neighborhood":"Kamppi","city":"Helsinki","state":"Uusimaa","country":"Suomi","formattedAddress":["Annankatu 29","00100 Helsinki","Suomi"]},"categories":[{"id":"4bf58dd8d48988d145941735","name":"Chinese Restaurant","pluralName":"Chinese Restaurants","shortName":"Chinese","icon":{"prefix":"https:\/\/ss3.4sqi.net\/img\/categories_v2\/food\/asian_","suffix":".png"},"primary":true}],"verified":false,"stats":{"tipCount":0,"usersCount":0,"checkinsCount":0,"visitsCount":0},"beenHere":{"count":0,"lastCheckinExpiredAt":0,"marked":false,"unconfirmedCount":0},"hereNow":{"count":0,"summary":"Nobody here","groups":[]},"referralId":"v-1604765475","venueChains":[],"hasPerk":false},{"id":"554b9456498ef3a307258e5c","name":"Fat Ramen","contact":{},"location":{"address":"Hietalahden kauppahalli","crossStreet":"Lönnrotinkatu 34","lat":60.162864,"lng":24.92902,"labeledLatLngs":[{"label":"display","lat":60.162864,"lng":24.92902}],"distance":1135,"postalCode":"00180","cc":"FI","city":"Helsinki","state":"Uusimaa","country":"Suomi","formattedAddress":["Hietalahden kauppahalli (Lönnrotinkatu 34)","00180 Helsinki","Suomi"]},"categories":[{"id":"55a59bace4b013909087cb24","name":"Ramen Restaurant","pluralName":"Ramen Restaurants","shortName":"Ramen","icon":{"prefix":"https:\/\/ss3.4sqi.net\/img\/categories_v2\/food\/ramen_","suffix":".png"},"primary":true}],"verified":true,"stats":{"tipCount":0,"usersCount":0,"checkinsCount":0,"visitsCount":0},"beenHere":{"count":0,"lastCheckinExpiredAt":0,"marked":false,"unconfirmedCount":0},"venuePage":{"id":"141493747"},"hereNow":{"count":0,"summary":"Nobody here","groups":[]},"referralId":"v-1604765475","venueChains":[],"hasPerk":false},{"id":"574d9c20cd10c7caa48aa372","name":"The Red Koi Thai","contact":{},"location":{"address":"Lönnrotinkatu 27","lat":60.164367098477236,"lng":24.932644517988905,"labeledLatLngs":[{"label":"display","lat":60.164367098477236,"lng":24.932644517988905}],"distance":1165,"postalCode":"00180","cc":"FI","neighborhood":"Kamppi","city":"Helsinki","state":"Uusimaa","country":"Suomi","formattedAddress":["Lönnrotinkatu 27","00180 Helsinki","Suomi"]},"categories":[{"id":"4bf58dd8d48988d149941735","name":"Thai Restaurant","pluralName":"Thai Restaurants","shortName":"Thai","icon":{"prefix":"https:\/\/ss3.4sqi.net\/img\/categories_v2\/food\/thai_","suffix":".png"},"primary":true}],"verified":false,"stats":{"tipCount":0,"usersCount":0,"checkinsCount":0,"visitsCount":0},"beenHere":{"count":0,"lastCheckinExpiredAt":0,"marked":false,"unconfirmedCount":0},"hereNow":{"count":0,"summary":"Nobody here","groups":[]},"referralId":"v-1604765475","venueChains":[],"hasPerk":false},{"id":"4b7c27b9f964a520ab802fe3","name":"Mount Everest","contact":{},"location":{"address":"Vilhonkatu 9","lat":60.172085,"lng":24.944626,"labeledLatLngs":[{"label":"display","lat":60.172085,"lng":24.944626}],"distance":1599,"postalCode":"00100","cc":"FI","city":"Helsinki","state":"Uusimaa","country":"Suomi","formattedAddress":["Vilhonkatu 9","00100 Helsinki","Suomi"]},"categories":[{"id":"52e81612bcbc57f1066b79fb","name":"Himalayan Restaurant","pluralName":"Himalayan Restaurants","shortName":"Himalayan","icon":{"prefix":"https:\/\/ss3.4sqi.net\/img\/categories_v2\/food\/default_","suffix":".png"},"primary":true}],"verified":false,"stats":{"tipCount":0,"usersCount":0,"checkinsCount":0,"visitsCount":0},"beenHere":{"count":0,"lastCheckinExpiredAt":0,"marked":false,"unconfirmedCount":0},"hereNow":{"count":0,"summary":"Nobody here","groups":[]},"referralId":"v-1604765475","venueChains":[],"hasPerk":false},{"id":"55e40c53498e84aea46eff18","name":"Aangan","contact":{},"location":{"address":"Hietalahdenkatu 8","lat":60.16319783830747,"lng":24.92778567298156,"labeledLatLngs":[{"label":"display","lat":60.16319783830747,"lng":24.92778567298156}],"distance":1063,"cc":"FI","city":"Helsinki","state":"Uusimaa","country":"Suomi","formattedAddress":["Hietalahdenkatu 8","Helsinki","Suomi"]},"categories":[{"id":"52e81612bcbc57f1066b79fb","name":"Himalayan Restaurant","pluralName":"Himalayan Restaurants","shortName":"Himalayan","icon":{"prefix":"https:\/\/ss3.4sqi.net\/img\/categories_v2\/food\/default_","suffix":".png"},"primary":true}],"verified":false,"stats":{"tipCount":0,"usersCount":0,"checkinsCount":0,"visitsCount":0},"beenHere":{"count":0,"lastCheckinExpiredAt":0,"marked":false,"unconfirmedCount":0},"hereNow":{"count":0,"summary":"Nobody here","groups":[]},"referralId":"v-1604765475","venueChains":[],"hasPerk":false},{"id":"598c1ae13149b904bb2af868","name":"Cafe namnam.","contact":{},"location":{"address":"Fleminginkatu 21 A","lat":60.18780994606679,"lng":24.953111875308757,"labeledLatLngs":[{"label":"display","lat":60.18780994606679,"lng":24.953111875308757}],"distance":2806,"postalCode":"00500","cc":"FI","city":"Helsinki","country":"Suomi","formattedAddress":["Fleminginkatu 21 A","00500 Helsinki","Suomi"]},"categories":[{"id":"4bf58dd8d48988d14a941735","name":"Vietnamese Restaurant","pluralName":"Vietnamese Restaurants","shortName":"Vietnamese","icon":{"prefix":"https:\/\/ss3.4sqi.net\/img\/categories_v2\/food\/vietnamese_","suffix":".png"},"primary":true}],"verified":false,"stats":{"tipCount":0,"usersCount":0,"checkinsCount":0,"visitsCount":0},"beenHere":{"count":0,"lastCheckinExpiredAt":0,"marked":false,"unconfirmedCount":0},"hereNow":{"count":0,"summary":"Nobody here","groups":[]},"referralId":"v-1604765475","venueChains":[],"hasPerk":false},{"id":"58d00c079b615c2b385e7822","name":"Haiku","contact":{},"location":{"address":"Lasipalatsinaukio","lat":60.1696845371786,"lng":24.936861425995954,"labeledLatLngs":[{"label":"display","lat":60.1696845371786,"lng":24.936861425995954}],"distance":1167,"cc":"FI","city":"Helsinki","state":"Uusimaa","country":"Suomi","formattedAddress":["Lasipalatsinaukio","Helsinki","Suomi"]},"categories":[{"id":"4bf58dd8d48988d1d2941735","name":"Sushi Restaurant","pluralName":"Sushi Restaurants","shortName":"Sushi","icon":{"prefix":"https:\/\/ss3.4sqi.net\/img\/categories_v2\/food\/sushi_","suffix":".png"},"primary":true}],"verified":false,"stats":{"tipCount":0,"usersCount":0,"checkinsCount":0,"visitsCount":0},"beenHere":{"count":0,"lastCheckinExpiredAt":0,"marked":false,"unconfirmedCount":0},"hereNow":{"count":0,"summary":"Nobody here","groups":[]},"referralId":"v-1604765475","venueChains":[],"hasPerk":false}],"confident":false}}