{"meta":{"code":200,"requestId":"5fa6c6904654450808262144"},"response":{"venues":[{"id":"4b2034eff964a520af2e24e3","name":"McDonald's","contact":{},"location":{"address":"Autotalo","crossStreet":"Fredrikinkatu 46","lat":60.16893493682833,"lng":24.93009426819029,"labeledLatLngs":[{"label":"display","lat":60.16893493682833,"lng":24.93009426819029}],"distance":811,"postalCode":"00100","cc":"FI","city":"Helsinki","state":"Uusimaa","country":"Suomi","formattedAddress":["Autotalo (Fredrikinkatu 46)","00100 Helsinki","Suomi"]},"categories":[{"id":"4bf58dd8d48988d16e941735","name":"Fast Food Restaurant","pluralName":"Fast Food Restaurants","shortName":"Fast Food","icon":{"prefix":"https:\/\/ss3.4sqi.net\/img\/categories_v2\/food\/fastfood_","suffix":".png"},"primary":true}],"verified":true,"stats":{"tipCount":0,"usersCount":0,"checkinsCount":0,"visitsCount":0},"beenHere":{"count":0,"lastCheckinExpiredAt":0,"marked":false,"unconfirmedCount":0},"hereNow":{"count":0,"summary":"Nobody here","groups":[]},"referralId":"v-1604765328","venueChains":[],"hasPerk":false},{"id":"5cca55093c858d002c4d90a3","name":"Taco Bell","contact":{},"location":{"address":"Tennispalatsi","crossStreet":"Fredrikinkatu 65","lat":60.169132,"lng":24.930536,"labeledLatLngs":[{"label":"display","lat":60.169132,"lng":24.930536}],"distance":830,"postalCode":"00100","cc":"FI","city":"Helsinki","state":"Uusimaa","country":"Suomi","formattedAddress":["Tennispalatsi (Fredrikinkatu 65)","00100 Helsinki","Suomi"]},"categories":[{"id":"4bf58dd8d48988d16e941735","name":"Fast Food Restaurant","pluralName":"Fast Food Restaurants","shortName":"Fast Food","icon":{"prefix":"https:\/\/ss3.4sqi.net\/img\/categories_v2\/food\/fastfood_","suffix":".png"},"primary":true}],"verified":false,"stats":{"tipCount":0,"usersCount":0,"checkinsCount":0,"visitsCount":0},"beenHere":{"count":0,"lastCheckinExpiredAt":0,"marked":false,"unconfirmedCount":0},"hereNow":{"count":0,"summary":"Nobody here","groups":[]},"referralId":"v-1604765328","venueChains":[],"hasPerk":false},{"id":"5d3c34506a65c60008f152ce","name":"Burger King","contact":{},"location":{"address":"Nihtisilta 4","lat":60.20728929727389,"lng":24.74924884736538,"labeledLatLngs":[{"label":"display","lat":60.20728929727389,"lng":24.74924884736538}],"distance":10080,"postalCode":"02630","cc":"FI","city":"Espoo","state":"Uusimaa","country":"Suomi","formattedAddress":["Nihtisilta 4","02630 Espoo","Suomi"]},"categories":[{"id":"4bf58dd8d48988d16e941735","name":"Fast Food Restaurant","pluralName":"Fast Food Restaurants","shortName":"Fast Food","icon":{"prefix":"https:\/\/ss3.4sqi.net\/img\/categories_v2\/food\/fastfood_","suffix":".png"},"primary":true}],"verified":false,"stats":{"tipCount":0,"usersCount":0,"checkinsCount":0,"visitsCount":0},"beenHere":{"count":0,"lastCheckinExpiredAt":0,"marked":false,"unconfirmedCount":0},"hereNow":{"count":0,"summary":"Nobody here","groups":[]},"referralId":"v-1604765328","venueChains":[],"hasPerk":false},{"id":"5d3061b7d6746d00081e4972","name":"Taco Bell","contact":{},"location":{"address":"Nihtisilta 4","lat":60.20714503305696,"lng":24.749793335795403,"labeledLatLngs":[{"label":"display","lat":60.20714503305696,"lng":24.749793335795403}],"distance":10046,"postalCode":"02630","cc":"FI","city":"Espoo","state":"Uusimaa","country":"Suomi","formattedAddress":["Nihtisilta 4","02630 Espoo","Suomi"]},"categories":[{"id":"4bf58dd8d48988d16e941735","name":"Fast Food Restaurant","pluralName":"Fast Food Restaurants","shortName":"Fast Food","icon":{"prefix":"https:\/\/ss3.4sqi.net\/img\/categories_v2\/food\/fastfood_","suffix":".png"},"primary":true}],"verified":false,"stats":{"tipCount":0,"usersCount":0,"checkinsCount":0,"visitsCount":0},"beenHere":{"count":0,"lastCheckinExpiredAt":0,"marked":false,"unconfirmedCount":0},"hereNow":{"count":0,"summary":"Nobody here","groups":[]},"referralId":"v-1604765328","venueChains":[],"hasPerk":false},{"id":"5aedd74f25ecca002c6511c7","name":"Burger King","contact":{},"location":{"address":"Isonpellontie 9","lat":60.24189834095673,"lng":24.97588012439527,"labeledLatLngs":[{"label":"display","lat":60.24189834095673,"lng":24.97588012439527}],"distance":8592,"postalCode":"00720","cc":"FI","city":"Helsinki","state":"Uusimaa","country":"Suomi","formattedAddress":["Isonpellontie 9","00720 Helsinki","Suomi"]},"categories":[{"id":"4bf58dd8d48988d16e941735","name":"Fast Food Restaurant","pluralName":"Fast Food Restaurants","shortName":"Fast Food","icon":{"prefix":"https:\/\/ss3.4sqi.net\/img\/categories_v2\/food\/fastfood_","suffix":".png"},"primary":true}],"verified":false,"stats":{"tipCount":0,"usersCount":0,"checkinsCount":0,"visitsCount":0},"beenHere":{"count":0,"lastCheckinExpiredAt":0,"marked":false,"unconfirmedCount":0},"hereNow":{"count":0,"summary":"Nobody here","groups":[]},"referralId":"v-1604765328","venueChains":[],"hasPerk":false},{"id":"4cf93a0ae8e254814904dc62","name":"McDonald's","contact":{},"location":{"address":"Tuupakantie","crossStreet":"Katriinantie","lat":60.2971345065634,"lng":24.8845025298771,"labeledLatLngs":[{"label":"display","lat":60.2971345065634,"lng":24.8845025298771}],"distance":14181,"postalCode":"01740","cc":"FI","city":"Vantaa","state":"Uusimaa","country":"Suomi","formattedAddress":["Tuupakantie (Katriinantie)","01740 Vantaa","Suomi"]},"categories":[{"id":"4bf58dd8d48988d16e941735","name":"Fast Food Restaurant","pluralName":"Fast Food Restaurants","shortName":"Fast Food","icon":{"prefix":"https:\/\/ss3.4sqi.net\/img\/categories_v2\/food\/fastfood_","suffix":".png"},"primary":true}],"verified":true,"stats":{"tipCount":0,"usersCount":0,"checkinsCount":0,"visitsCount":0},"beenHere":{"count":0,"lastCheckinExpiredAt":0,"marked":false,"unconfirmedCount":0},"hereNow":{"count":0,"summary":"Nobody here","groups":[]},"referralId":"v-1604765328","venueChains":[],"hasPerk":false},{"id":"4ba5ef28f964a520152a39e3","name":"McDonald's","contact":{},"location":{"address":"Laivalahdenkatu 1","crossStreet":"Suunnittelijankatu","lat":60.194216145412554,"lng":25.03750306365874,"labeledLatLngs":[{"label":"display","lat":60.194216145412554,"lng":25.03750306365874}],"distance":7223,"postalCode":"00880","cc":"FI","city":"Helsinki","state":"Uusimaa","country":"Suomi","formattedAddress":["Laivalahdenkatu 1 (Suunnittelijankatu)","00880 Helsinki","Suomi"]},"categories":[{"id":"4bf58dd8d48988d16e941735","name":"Fast Food Restaurant","pluralName":"Fast Food Restaurants","shortName":"Fast Food","icon":{"prefix":"https:\/\/ss3.4sqi.net\/img\/categories_v2\/food\/fastfood_","suffix":".png"},"primary":true}],"verified":true,"stats":{"tipCount":0,"usersCount":0,"checkinsCount":0,"visitsCount":0},"beenHere":{"count":0,"lastCheckinExpiredAt":0,"marked":false,"unconfirmedCount":0},"hereNow":{"count":0,"summary":"Nobody here","groups":[]},"referralId":"v-1604765328","venueChains":[],"hasPerk":false},{"id":"4baa4bebf964a520335c3ae3","name":"McDonald's","contact":{},"location":{"address":"Pukinmäenkaari 55","lat":60.24291494423558,"lng":24.978354922346423,"labeledLatLngs":[{"label":"display","lat":60.24291494423558,"lng":24.978354922346423}],"distance":8750,"postalCode":"00720","cc":"FI","city":"Helsinki","state":"Uusimaa","country":"Suomi","formattedAddress":["Pukinmäenkaari 55","00720 Helsinki","Suomi"]},"categories":[{"id":"4bf58dd8d48988d16e941735","name":"Fast Food Restaurant","pluralName":"Fast Food Restaurants","shortName":"Fast Food","icon":{"prefix":"https:\/\/ss3.4sqi.net\/img\/categories_v2\/food\/fastfood_","suffix":".png"},"primary":true}],"verified":true,"stats":{"tipCount":0,"usersCount":0,"checkinsCount":0,"visitsCount":0},"beenHere":{"count":0,"lastCheckinExpiredAt":0,"marked":false,"unconfirmedCount":0},"hereNow":{"count":0,"summary":"Nobody here","groups":[]},"referralId":"v-1604765328","venueChains":[],"hasPerk":false},{"id":"4bee687ee24d20a1a4e57214","name":"McDonald's","contact":{},"location":{"address":"Mannerheimintie 53","crossStreet":"Reijolankatu","lat":60.189890433606195,"lng":24.917142081001813,"labeledLatLngs":[{"label":"display","lat":60.189890433606195,"lng":24.917142081001813}],"distance":2137,"postalCode":"00250","cc":"FI","city":"Helsinki","state":"Uusimaa","country":"Suomi","formattedAddress":["Mannerheimintie 53 (Reijolankatu)","00250 Helsinki","Suomi"]},"categories":[{"id":"4bf58dd8d48988d16e941735","name":"Fast Food Restaurant","pluralName":"Fast Food Restaurants","shortName":"Fast Food","icon":{"prefix":"https:\/\/ss3.4sqi.net\/img\/categories_v2\/food\/fastfood_","suffix":".png"},"primary":true}],"verified":true,"stats":{"tipCount":0,"usersCount":0,"checkinsCount":0,"visitsCount":0},"beenHere":{"count":0,"lastCheckinExpiredAt":0,"marked":false,"unconfirmedCount":0},"hereNow":{"count":0,"summary":"Nobody here","groups":[]},"referralId":"v-1604765328","venueChains":[],"hasPerk":false},{"id":"4d28bc1e342d6dcb9fa5fbca","name":"McDonald's","contact":{},"location":{"address":"Asemankaari 2","lat":60.121471657193396,"lng":24.44163856460177,"labeledLatLngs":[{"label":"display","lat":60.121471657193396,"lng":24.44163856460177}],"distance":26844,"postalCode":"02400","cc":"FI","city":"Kirkkonummi","state":"Uusimaa","country":"Suomi","formattedAddress":["Asemankaari 2","02400 Kirkkonummi","Suomi"]},"categories":[{"id":"4bf58dd8d48988d16e941735","name":"Fast Food Restaurant","pluralName":"Fast Food Restaurants","shortName":"Fast Food","icon":{"prefix":"https:\/\/ss3.4sqi.net\/img\/categories_v2\/food\/fastfood_","suffix":".png"},"primary":true}],"verified":true,"stats":{"tipCount":0,"usersCount":0,"checkinsCount":0,"visitsCount":0},"beenHere":{"count":0,"lastCheckinExpiredAt":0,"marked":false,"unconfirmedCount":0},"hereNow":{"count":0,"summary":"Nobody here","groups":[]},"referralId":"v-1604765328","venueChains":[],"hasPerk":false},{"id":"59fc778728374e3a5955f0c6","name":"McDonald's","contact":{},"location":{"address":"Kivikonlaita 2","lat":60.23112774626414,"lng":25.054728620767666,"labeledLatLngs":[{"label":"display","lat":60.23112774626414,"lng":25.054728620767666}],"distance":10210,"postalCode":"00940","cc":"FI","neighborhood":"Stensböle","city":"Helsinki","state":"Uusimaa","country":"Suomi","formattedAddress":["Kivikonlaita 2","00940 Helsinki","Suomi"]},"categories":[{"id":"4bf58dd8d48988d16e941735","name":"Fast Food Restaurant","pluralName":"Fast Food Restaurants","shortName":"Fast Food","icon":{"prefix":"https:\/\/ss3.4sqi.net\/img\/categories_v2\/food\/fastfood_","suffix":".png"},"primary":true}],"verified":false,"stats":{"tipCount":0,"usersCount":0,"checkinsCount":0,"visitsCount":0},"beenHere":{"count":0,"lastCheckinExpiredAt":0,"marked":false,"unconfirmedCount":0},"hereNow":{"count":0,"summary":"Nobody here","groups":[]},"referralId":"v-1604765328","venueChains":[],"hasPerk":false},{"id":"566049c1498ea18d8a6766ba","name":"Burger King","contact":{},"location":{"address":"Ulappakatu 2","lat":60.15168,"lng":24.65401,"labeledLatLngs":[{"label":"display","lat":60.15168,"lng":24.65401}],"distance":14658,"postalCode":"02320","cc":"FI","city":"Espoo","state":"Uusimaa","country":"Suomi","formattedAddress":["Ulappakatu 2","02320 Espoo","Suomi"]},"categories":[{"id":"4bf58dd8d48988d16e941735","name":"Fast Food Restaurant","pluralName":"Fast Food Restaurants","shortName":"Fast Food","icon":{"prefix":"https:\/\/ss3.4sqi.net\/img\/categories_v2\/food\/fastfood_","suffix":".png"},"primary":true}],"verified":false,"stats":{"tipCount":0,"usersCount":0,"checkinsCount":0,"visitsCount":0},"beenHere":{"count":0,"lastCheckinExpiredAt":0,"marked":false,"unconfirmedCount":0},"hereNow":{"count":0,"summary":"Nobody here","groups":[]},"referralId":"v-1604765328","venueChains":[],"hasPerk":false},{"id":"5c84f465b9a5a80039b09c82","name":"McDonald's","contact":{},"location":{"address":"Finnoonlaaksontie 14","lat":60.162296,"lng":24.711008,"labeledLatLngs":[{"label":"display","lat":60.162296,"lng":24.711008}],"distance":11383,"postalCode":"02270","cc":"FI","city":"Espoo","state":"Uusimaa","country":"Suomi","formattedAddress":["Finnoonlaaksontie 14","02270 Espoo","Suomi"]},"categories":[{"id":"4bf58dd8d48988d16e941735","name":"Fast Food Restaurant","pluralName":"Fast Food Restaurants","shortName":"Fast Food","icon":{"prefix":"https:\/\/ss3.4sqi.net\/img\/categories_v2\/food\/fastfood_","suffix":".png"},"primary":true}],"verified":false,"stats":{"tipCount":0,"usersCount":0,"checkinsCount":0,"visitsCount":0},"beenHere":{"count":0,"lastCheckinExpiredAt":0,"marked":false,"unconfirmedCount":0},"hereNow":{"count":0,"summary":"Nobody here","groups":[]},"referralId":"v-1604765328","venueChains":[],"hasPerk":false},{"id":"4be92520ee96c9284ed7febf","name":"McDonald's","contact":{},"location":{"address":"Palomiehentie 2","crossStreet":"Kauniaistentie","lat":60.208545707142264,"lng":24.744165525915687,"labeledLatLngs":[{"label":"display","lat":60.208545707142264,"lng":24.744165525915687}],"distance":10394,"postalCode":"02750","cc":"FI","city":"Espoo","state":"Uusimaa","country":"Suomi","formattedAddress":["Palomiehentie 2 (Kauniaistentie)","02750 Espoo","Suomi"]},"categories":[{"id":"4bf58dd8d48988d16e941735","name":"Fast Food Restaurant","pluralName":"Fast Food Restaurants","shortName":"Fast Food","icon":{"prefix":"https:\/\/ss3.4sqi.net\/img\/categories_v2\/food\/fastfood_","suffix":".png"},"primary":true}],"verified":true,"stats":{"tipCount":0,"usersCount":0,"checkinsCount":0,"visitsCount":0},"beenHere":{"count":0,"lastCheckinExpiredAt":0,"marked":false,"unconfirmedCount":0},"hereNow":{"count":0,"summary":"Nobody here","groups":[]},"referralId":"v-1604765328","venueChains":[],"hasPerk":false},{"id":"4b56d3a6f964a520461c28e3","name":"Hesburger","contact":{},"location":{"address":"Helsinginkatu 28","lat":60.18649247507054,"lng":24.947827671173407,"labeledLatLngs":[{"label":"display","lat":60.18649247507054,"lng":24.947827671173407}],"distance":2493,"postalCode":"00530","cc":"FI","city":"Helsinki","state":"Uusimaa","country":"Suomi","formattedAddress":["Helsinginkatu 28","00530 Helsinki","Suomi"]},"categories":[{"id":"4bf58dd8d48988d16e941735","name":"Fast Food Restaurant","pluralName":"Fast Food Restaurants","shortName":"Fast Food","icon":{"prefix":"https:\/\/ss3.4sqi.net\/img\/categories_v2\/food\/fastfood_","suffix":".png"},"primary":true}],"verified":true,"stats":{"tipCount":0,"usersCount":0,"checkinsCount":0,"visitsCount":0},"beenHere":{"count":0,"lastCheckinExpiredAt":0,"marked":false,"unconfirmedCount":0},"hereNow":{"count":0,"summary":"Nobody here","groups":[]},"referralId":"v-1604765328","venueChains":[],"hasPerk":false},{"id":"5901c03e75a6ea4753c748d3","name":"Burger King","contact":{},"location":{"address":"Ratatie 11","lat":60.29257,"lng":25.04369,"labeledLatLngs":[{"label":"display","lat":60.29257,"lng":25.04369}],"distance":15295,"postalCode":"01300","cc":"FI","city":"Vantaa","state":"Uusimaa","country":"Suomi","formattedAddress":["Ratatie 11","01300 Vantaa","Suomi"]},"categories":[{"id":"4bf58dd8d48988d16e941735","name":"Fast Food Restaurant","pluralName":"Fast Food Restaurants","shortName":"Fast Food","icon":{"prefix":"https:\/\/ss3.4sqi.net\/img\/categories_v2\/food\/fastfood_","suffix":".png"},"primary":true}],"verified":false,"stats":{"tipCount":0,"usersCount":0,"checkinsCount":0,"visitsCount":0},"beenHere":{"count":0,"lastCheckinExpiredAt":0,"marked":false,"unconfirmedCount":0},"hereNow":{"count":0,"summary":"Nobody here","groups":[]},"referralId":"v-1604765328","venueChains":[],"hasPerk":false},{"id":"4b4d8983f964a520bfd326e3","name":"McDonald's","contact":{},"location":{"address":"Niittymaantie 6","lat":60.17117888753246,"lng":24.77797124192889,"labeledLatLngs":[{"label":"display","lat":60.17117888753246,"lng":24.77797124192889}],"distance":7636,"postalCode":"02200","cc":"FI","city":"Espoo","state":"Uusimaa","country":"Suomi","formattedAddress":["Niittymaantie 6","02200 Espoo","Suomi"]},"categories":[{"id":"4bf58dd8d48988d16e941735","name":"Fast Food Restaurant","pluralName":"Fast Food Restaurants","shortName":"Fast Food","icon":{"prefix":"https:\/\/ss3.4sqi.net\/img\/categories_v2\/food\/fastfood_","suffix":".png"},"primary":true}],"verified":true,"stats":{"tipCount":0,"usersCount":0,"checkinsCount":0,"visitsCount":0},"beenHere":{"count":0,"lastCheckinExpiredAt":0,"marked":false,"unconfirmedCount":0},"hereNow":{"count":0,"summary":"Nobody here","groups":[]},"referralId":"v-1604765328","venueChains":[],"hasPerk":false},{"id":"4c1ce057624b9c740fd91204","name":"McDonald's","contact":{},"location":{"address":"Paciuksenkatu 29","lat":60.1955230258295,"lng":24.890775732847793,"labeledLatLngs":[{"label":"display","lat":60.1955230258295,"lng":24.890775732847793}],"distance":3093,"postalCode":"00270","cc":"FI","city":"Helsinki","state":"Uusimaa","country":"Suomi","formattedAddress":["Paciuksenkatu 29","00270 Helsinki","Suomi"]},"categories":[{"id":"4bf58dd8d48988d16e941735","name":"Fast Food Restaurant","pluralName":"Fast Food Restaurants","shortName":"Fast Food","icon":{"prefix":"https:\/\/ss3.4sqi.net\/img\/categories_v2\/food\/fastfood_","suffix":".png"},"primary":true}],"verified":true,"stats":{"tipCount":0,"usersCount":0,"checkinsCount":0,"visitsCount":0},"beenHere":{"count":0,"lastCheckinExpiredAt":0,"marked":false,"unconfirmedCount":0},"hereNow":{"count":1,"summary":"One other person is here","groups":[{"type":"others","name":"Other people here","count":1,"items":[]}]},"referralId":"v-1604765328","venueChains":[],"hasPerk":false},{"id":"4ca87ed4f47ea1433c757521","name":"McDonald's","contact":{},"location":{"address":"Teollisuuskatu 6","crossStreet":"Satamaradankatu","lat":60.19047173482823,"lng":24.95604332848067,"labeledLatLngs":[{"label":"display","lat":60.19047173482823,"lng":24.95604332848067}],"distance":3128,"postalCode":"00500","cc":"FI","city":"Helsinki","state":"Uusimaa","country":"Suomi","formattedAddress":["Teollisuuskatu 6 (Satamaradankatu)","00500 Helsinki","Suomi"]},"categories":[{"id":"4bf58dd8d48988d16e941735","name":"Fast Food Restaurant","pluralName":"Fast Food Restaurants","shortName":"Fast Food","icon":{"prefix":"https:\/\/ss3.4sqi.net\/img\/categories_v2\/food\/fastfood_","suffix":".png"},"primary":true}],"verified":true,"stats":{"tipCount":0,"usersCount":0,"checkinsCount":0,"visitsCount":0},"beenHere":{"count":0,"lastCheckinExpiredAt":0,"marked":false,"unconfirmedCount":0},"hereNow":{"count":0,"summary":"Nobody here","groups":[]},"referralId":"v-1604765328","venueChains":[],"hasPerk":false},{"id":"4c097cb13c70b71344d4275b","name":"Teboil","contact":{},"location":{"address":"Pakilantie 66","lat":60.2416219391299,"lng":24.92628657574456,"labeledLatLngs":[{"label":"display","lat":60.2416219391299,"lng":24.92628657574456}],"distance":7916,"postalCode":"00660","cc":"FI","city":"Helsinki","state":"Uusimaa","country":"Suomi","formattedAddress":["Pakilantie 66","00660 Helsinki","Suomi"]},"categories":[{"id":"4bf58dd8d48988d113951735","name":"Gas Station","pluralName":"Gas Stations","shortName":"Gas Station","icon":{"prefix":"https:\/\/ss3.4sqi.net\/img\/categories_v2\/shops\/gas_","suffix":".png"},"primary":true}],"verified":false,"stats":{"tipCount":0,"usersCount":0,"checkinsCount":0,"visitsCount":0},"beenHere":{"count":0,"lastCheckinExpiredAt":0,"marked":false,"unconfirmedCount":0},"hereNow":{"count":0,"summary":"Nobody here","groups":[]},"referralId":"v-1604765328","venueChains":[],"hasPerk":false},{"id":"59ee6702018cbb118bae13b2","name":"Taco Bell","contact":{},"location":{"address":"Kauppakeskus Sello, 1. krs","crossStreet":"Leppävaarankatu 3-9","lat":60.21894497139238,"lng":24.81336473729497,"labeledLatLngs":[{"label":"display","lat":60.21894497139238,"lng":24.81336473729497}],"distance":7811,"postalCode":"02600","cc":"FI","neighborhood":"Leppävaara","city":"Espoo","state":"Uusimaa","country":"Suomi","formattedAddress":["Kauppakeskus Sello, 1. krs (Leppävaarankatu 3-9)","02600 Espoo","Suomi"]},"categories":[{"id":"4bf58dd8d48988d16e941735","name":"Fast Food Restaurant","pluralName":"Fast Food Restaurants","shortName":"Fast Food","icon":{"prefix":"https:\/\/ss3.4sqi.net\/img\/categories_v2\/food\/fastfood_","suffix":".png"},"primary":true}],"verified":false,"stats":{"tipCount":0,"usersCount":0,"checkinsCount":0,"visitsCount":0},"beenHere":{"count":0,"lastCheckinExpiredAt":0,"marked":false,"unconfirmedCount":0},"hereNow":{"count":0,"summary":"Nobody here","groups":[]},"referralId":"v-1604765328","venueChains":[],"hasPerk":false},{"id":"4bacd545f964a5203a103be3","name":"McDonald's","contact":{},"location":{"address":"Aamuruskontie 2 A","lat":60.28352312720941,"lng":25.02871001671075,"labeledLatLngs":[{"label":"display","lat":60.28352312720941,"lng":25.02871001671075}],"distance":14022,"postalCode":"00750","cc":"FI","city":"Helsinki","state":"Uusimaa","country":"Suomi","formattedAddress":["Aamuruskontie 2 A","00750 Helsinki","Suomi"]},"categories":[{"id":"4bf58dd8d48988d16e941735","name":"Fast Food Restaurant","pluralName":"Fast Food Restaurants","shortName":"Fast Food","icon":{"prefix":"https:\/\/ss3.4sqi.net\/img\/categories_v2\/food\/fastfood_","suffix":".png"},"primary":true}],"verified":true,"stats":{"tipCount":0,"usersCount":0,"checkinsCount":0,"visitsCount":0},"beenHere":{"count":0,"lastCheckinExpiredAt":0,"marked":false,"unconfirmedCount":0},"hereNow":{"count":0,"summary":"Nobody here","groups":[]},"referralId":"v-1604765328","venueChains":[],"hasPerk":false},{"id":"4bae3023f964a520858f3be3","name":"McDonald's","contact":{},"location":{"address":"Lommilanrinne 2","lat":60.21828617621435,"lng":24.659556158201525,"labeledLatLngs":[{"label":"display","lat":60.21828617621435,"lng":24.659556158201525}],"distance":15139,"postalCode":"02740","cc":"FI","city":"Espoo","state":"Uusimaa","country":"Suomi","formattedAddress":["Lommilanrinne 2","02740 Espoo","Suomi"]},"categories":[{"id":"4bf58dd8d48988d16e941735","name":"Fast Food Restaurant","pluralName":"Fast Food Restaurants","shortName":"Fast Food","icon":{"prefix":"https:\/\/ss3.4sqi.net\/img\/categories_v2\/food\/fastfood_","suffix":".png"},"primary":true}],"verified":true,"stats":{"tipCount":0,"usersCount":0,"checkinsCount":0,"visitsCount":0},"beenHere":{"count":0,"lastCheckinExpiredAt":0,"marked":false,"unconfirmedCount":0},"hereNow":{"count":0,"summary":"Nobody here","groups":[]},"referralId":"v-1604765328","venueChains":[],"hasPerk":false},{"id":"4b235f9df964a520845524e3","name":"McDonald's","contact":{},"location":{"address":"Louhijantie 1","lat":60.263833159575896,"lng":24.872127215485165,"labeledLatLngs":[{"label":"display","lat":60.263833159575896,"lng":24.872127215485165}],"distance":10646,"postalCode":"01610","cc":"FI","neighborhood":"Kaivoksela","city":"Vantaa","state":"Uusimaa","country":"Suomi","formattedAddress":["Louhijantie 1","01610 Vantaa","Suomi"]},"categories":[{"id":"4bf58dd8d48988d16e941735","name":"Fast Food Restaurant","pluralName":"Fast Food Restaurants","shortName":"Fast Food","icon":{"prefix":"https:\/\/ss3.4sqi.net\/img\/categories_v2\/food\/fastfood_","suffix":".png"},"primary":true}],"verified":true,"stats":{"tipCount":0,"usersCount":0,"checkinsCount":0,"visitsCount":0},"beenHere":{"count":0,"lastCheckinExpiredAt":0,"marked":false,"unconfirmedCount":0},"hereNow":{"count":0,"summary":"Nobody here","groups":[]},"referralId":"v-1604765328","venueChains":[],"hasPerk":false},{"id":"4d9ddfe150aa41bda17814e1","name":"Hesburger","contact":{},"location":{"address":"Riihikuja 3","lat":60.27409789999999,"lng":24.8112352,"labeledLatLngs":[{"label":"display","lat":60.27409789999999,"lng":24.8112352}],"distance":12882,"postalCode":"10320","cc":"FI","city":"Karjaa","state":"Uusimaa","country":"Suomi","formattedAddress":["Riihikuja 3","10320 Karjaa","Suomi"]},"categories":[{"id":"4bf58dd8d48988d16e941735","name":"Fast Food Restaurant","pluralName":"Fast Food Restaurants","shortName":"Fast Food","icon":{"prefix":"https:\/\/ss3.4sqi.net\/img\/categories_v2\/food\/fastfood_","suffix":".png"},"primary":true}],"verified":true,"stats":{"tipCount":0,"usersCount":0,"checkinsCount":0,"visitsCount":0},"beenHere":{"count":0,"lastCheckinExpiredAt":0,"marked":false,"unconfirmedCount":0},"hereNow":{"count":0,"summary":"Nobody here","groups":[]},"referralId":"v-1604765328","venueChains":[],"hasPerk":false},{"id":"5d151400af35f30025a9a0c4","name":"Black Grill&Cafe","contact":{},"location":{"lat":60.17894,"lng":24.923532,"labeledLatLngs":[{"label":"display","lat":60.17894,"lng":24.923532}],"distance":1010,"postalCode":"00260","cc":"FI","city":"Helsinki","state":"Uusimaa","country":"Suomi","formattedAddress":["00260 Helsinki","Suomi"]},"categories":[{"id":"4bf58dd8d48988d16e941735","name":"Fast Food Restaurant","pluralName":"Fast Food Restaurants","shortName":"Fast Food","icon":{"prefix":"https:\/\/ss3.4sqi.net\/img\/categories_v2\/food\/fastfood_","suffix":".png"},"primary":true}],"verified":false,"stats":{"tipCount":0,"usersCount":0,"checkinsCount":0,"visitsCount":0},"beenHere":{"count":0,"lastCheckinExpiredAt":0,"marked":false,"unconfirmedCount":0},"hereNow":{"count":0,"summary":"Nobody here","groups":[]},"referralId":"v-1604765328","venueChains":[],"hasPerk":false},{"id":"4b2919e8f964a520b99824e3","name":"Hesburger","contact":{},"location":{"address":"Tietokuja 1","lat":60.2019276573452,"lng":24.8816154864338,"labeledLatLngs":[{"label":"display","lat":60.2019276573452,"lng":24.8816154864338}],"distance":3959,"postalCode":"00330","cc":"FI","city":"Helsinki","state":"Uusimaa","country":"Suomi","formattedAddress":["Tietokuja 1","00330 Helsinki","Suomi"]},"categories":[{"id":"4bf58dd8d48988d16e941735","name":"Fast Food Restaurant","pluralName":"Fast Food Restaurants","shortName":"Fast Food","icon":{"prefix":"https:\/\/ss3.4sqi.net\/img\/categories_v2\/food\/fastfood_","suffix":".png"},"primary":true}],"verified":true,"stats":{"tipCount":0,"usersCount":0,"checkinsCount":0,"visitsCount":0},"beenHere":{"count":0,"lastCheckinExpiredAt":0,"marked":false,"unconfirmedCount":0},"hereNow":{"count":0,"summary":"Nobody here","groups":[]},"referralId":"v-1604765328","venueChains":[],"hasPerk":false},{"id":"4adcdb23f964a520f26021e3","name":"Eerikin Pippuri","contact":{},"location":{"address":"Eerikinkatu 17","lat":60.166504,"lng":24.932934,"labeledLatLngs":[{"label":"display","lat":60.166504,"lng":24.932934}],"distance":1053,"postalCode":"00100","cc":"FI","city":"Helsinki","country":"Suomi","formattedAddress":["Eerikinkatu 17","00100 Helsinki","Suomi"]},"categories":[{"id":"5283c7b4e4b094cb91ec88d7","name":"Kebab Restaurant","pluralName":"Kebab Restaurants","shortName":"Kebab","icon":{"prefix":"https:\/\/ss3.4sqi.net\/img\/categories_v2\/food\/middleeastern_","suffix":".png"},"primary":true}],"verified":false,"stats":{"tipCount":0,"usersCount":0,"checkinsCount":0,"visitsCount":0},"beenHere":{"count":0,"lastCheckinExpiredAt":0,"marked":false,"unconfirmedCount":0},"hereNow":{"count":0,"summary":"Nobody here","groups":[]},"referralId":"v-1604765328","venueChains":[],"hasPerk":false},{"id":"52f2130c498e7c57f7b0abab","name":"Burger King","contact":{},"location":{"address":"Helsingin rautatieasema","crossStreet":"Kaivokatu 1","lat":60.1709416,"lng":24.9420629,"labeledLatLngs":[{"label":"display","lat":60.1709416,"lng":24.9420629}],"distance":1450,"postalCode":"00100","cc":"FI","neighborhood":"Helsinki","city":"Helsinki","state":"Uusimaa","country":"Suomi","formattedAddress":["Helsingin rautatieasema (Kaivokatu 1)","00100 Helsinki","Suomi"]},"categories":[{"id":"4bf58dd8d48988d16e941735","name":"Fast Food Restaurant","pluralName":"Fast Food Restaurants","shortName":"Fast Food","icon":{"prefix":"https:\/\/ss3.4sqi.net\/img\/categories_v2\/food\/fastfood_","suffix":".png"},"primary":true}],"verified":false,"stats":{"tipCount":0,"usersCount":0,"checkinsCount":0,"visitsCount":0},"beenHere":{"count":0,"lastCheckinExpiredAt":0,"marked":false,"unconfirmedCount":0},"hereNow":{"count":0,"summary":"Nobody here","groups":[]},"referralId":"v-1604765328","venueChains":[],"hasPerk":false},{"id":"53397c4d498ef67162207461","name":"Hesburger","contact":{},"location":{"address":"VR Helsinki","crossStreet":"Kaivokatu 1","lat":60.17122716460956,"lng":24.941159269209674,"labeledLatLngs":[{"label":"display","lat":60.17122716460956,"lng":24.941159269209674}],"distance":1401,"postalCode":"00100","cc":"FI","city":"Helsinki","state":"Uusimaa","country":"Suomi","formattedAddress":["VR Helsinki (Kaivokatu 1)","00100 Helsinki","Suomi"]},"categories":[{"id":"4bf58dd8d48988d16e941735","name":"Fast Food Restaurant","pluralName":"Fast Food Restaurants","shortName":"Fast Food","icon":{"prefix":"https:\/\/ss3.4sqi.net\/img\/categories_v2\/food\/fastfood_","suffix":".png"},"primary":true}],"verified":true,"stats":{"tipCount":0,"usersCount":0,"checkinsCount":0,"visitsCount":0},"beenHere":{"count":0,"lastCheckinExpiredAt":0,"marked":false,"unconfirmedCount":0},"hereNow":{"count":0,"summary":"Nobody here","groups":[]},"referralId":"v-1604765328","venueChains":[],"hasPerk":false}],"confident":false}}