{"meta":{"code":200,"requestId":"5fa6c6ee56c1c62a09e1c5be"},"response":{"venues":[{"id":"53effe04498e08d769e4a7d8","name":"puisto helsingissä ja mäkki","contact":{},"location":{"lat":60.171398,"lng":24.927136,"labeledLatLngs":[{"label":"display","lat":60.171398,"lng":24.927136}],"distance":628,"cc":"FI","country":"Suomi","formattedAddress":["Suomi"]},"categories":[{"id":"4bf58dd8d48988d14e941735","name":"American Restaurant","pluralName":"American Restaurants","shortName":"American","icon":{"prefix":"https:\/\/ss3.4sqi.net\/img\/categories_v2\/food\/default_","suffix":".png"},"primary":true}],"verified":false,"stats":{"tipCount":0,"usersCount":0,"checkinsCount":0,"visitsCount":0},"beenHere":{"count":0,"lastCheckinExpiredAt":0,"marked":false,"unconfirmedCount":0},"hereNow":{"count":0,"summary":"Nobody here","groups":[]},"referralId":"v-1604765422","venueChains":[],"hasPerk":false},{"id":"5e667369e160900008d1d5f9","name":"Version","contact":{},"location":{"address":"Unioninkatu 14","crossStreet":"Eteläinen Makasiinikatu","lat":60.165015,"lng":24.951116,"labeledLatLngs":[{"label":"display","lat":60.165015,"lng":24.951116}],"distance":2051,"postalCode":"00130","cc":"FI","city":"Helsinki","state":"Uusimaa","country":"Suomi","formattedAddress":["Unioninkatu 14 (Eteläinen Makasiinikatu)","00130 Helsinki","Suomi"]},"categories":[{"id":"4bf58dd8d48988d14e941735","name":"American Restaurant","pluralName":"American Restaurants","shortName":"American","icon":{"prefix":"https:\/\/ss3.4sqi.net\/img\/categories_v2\/food\/default_","suffix":".png"},"primary":true}],"verified":false,"stats":{"tipCount":0,"usersCount":0,"checkinsCount":0,"visitsCount":0},"beenHere":{"count":0,"lastCheckinExpiredAt":0,"marked":false,"unconfirmedCount":0},"hereNow":{"count":0,"summary":"Nobody here","groups":[]},"referralId":"v-1604765422","venueChains":[],"hasPerk":false},{"id":"5b1a740a628c83002c1eb250","name":"Smokers Beer & BBQ","contact":{},"location":{"address":"Ratsukatu 3","lat":60.218209784287794,"lng":24.808089608455298,"labeledLatLngs":[{"label":"display","lat":60.218209784287794,"lng":24.808089608455298}],"distance":7971,"postalCode":"02600","cc":"FI","city":"Espoo","state":"Uusimaa","country":"Suomi","formattedAddress":["Ratsukatu 3","02600 Espoo","Suomi"]},"categories":[{"id":"4bf58dd8d48988d157941735","name":"New American Restaurant","pluralName":"New American Restaurants","shortName":"New American","icon":{"prefix":"https:\/\/ss3.4sqi.net\/img\/categories_v2\/food\/newamerican_","suffix":".png"},"primary":true}],"verified":false,"stats":{"tipCount":0,"usersCount":0,"checkinsCount":0,"visitsCount":0},"beenHere":{"count":0,"lastCheckinExpiredAt":0,"marked":false,"unconfirmedCount":0},"hereNow":{"count":0,"summary":"Nobody here","groups":[]},"referralId":"v-1604765422","venueChains":[],"hasPerk":false},{"id":"59fcc096805e3f037dd304d4","name":"Sue Ellen","contact":{},"location":{"address":"Eteläranta 16","lat":60.16652471213221,"lng":24.952244580699222,"labeledLatLngs":[{"label":"display","lat":60.16652471213221,"lng":24.952244580699222}],"distance":2066,"postalCode":"00101","cc":"FI","city":"Helsinki","state":"Uusimaa","country":"Suomi","formattedAddress":["Eteläranta 16","00101 Helsinki","Suomi"]},"categories":[{"id":"4bf58dd8d48988d14e941735","name":"American Restaurant","pluralName":"American Restaurants","shortName":"American","icon":{"prefix":"https:\/\/ss3.4sqi.net\/img\/categories_v2\/food\/default_","suffix":".png"},"primary":true}],"verified":false,"stats":{"tipCount":0,"usersCount":0,"checkinsCount":0,"visitsCount":0},"beenHere":{"count":0,"lastCheckinExpiredAt":0,"marked":false,"unconfirmedCount":0},"hereNow":{"count":0,"summary":"Nobody here","groups":[]},"referralId":"v-1604765422","venueChains":[],"hasPerk":false},{"id":"5dbc3fd4020c500008d49618","name":"Madison Gastro&Wine","contact":{},"location":{"address":"Food Garden","crossStreet":"Länsituuli 5, 3. krs","lat":60.175507535471105,"lng":24.8039773106575,"labeledLatLngs":[{"label":"display","lat":60.175507535471105,"lng":24.8039773106575}],"distance":6218,"postalCode":"02100","cc":"FI","city":"Espoo","state":"Uusimaa","country":"Suomi","formattedAddress":["Food Garden (Länsituuli 5, 3. krs)","02100 Espoo","Suomi"]},"categories":[{"id":"4bf58dd8d48988d14e941735","name":"American Restaurant","pluralName":"American Restaurants","shortName":"American","icon":{"prefix":"https:\/\/ss3.4sqi.net\/img\/categories_v2\/food\/default_","suffix":".png"},"primary":true}],"verified":false,"stats":{"tipCount":0,"usersCount":0,"checkinsCount":0,"visitsCount":0},"beenHere":{"count":0,"lastCheckinExpiredAt":0,"marked":false,"unconfirmedCount":0},"hereNow":{"count":0,"summary":"Nobody here","groups":[]},"referralId":"v-1604765422","venueChains":[],"hasPerk":false},{"id":"5d527556dfef1a0008e86960","name":"O'Learys","contact":{},"location":{"address":"C\/O Mall of Tripla, Firdonkatu 2B 3018","lat":60.1991063,"lng":24.9304252007398,"labeledLatLngs":[{"label":"display","lat":60.1991063,"lng":24.9304252007398}],"distance":3263,"postalCode":"00520","cc":"FI","city":"Helsinki","state":"Uusimaa","country":"Suomi","formattedAddress":["C\/O Mall of Tripla, Firdonkatu 2B 3018","00520 Helsinki","Suomi"]},"categories":[{"id":"4bf58dd8d48988d14e941735","name":"American Restaurant","pluralName":"American Restaurants","shortName":"American","icon":{"prefix":"https:\/\/ss3.4sqi.net\/img\/categories_v2\/food\/default_","suffix":".png"},"primary":true}],"verified":true,"stats":{"tipCount":0,"usersCount":0,"checkinsCount":0,"visitsCount":0},"beenHere":{"count":0,"lastCheckinExpiredAt":0,"marked":false,"unconfirmedCount":0},"hereNow":{"count":0,"summary":"Nobody here","groups":[]},"referralId":"v-1604765422","venueChains":[],"hasPerk":false},{"id":"4b3d323ef964a520049025e3","name":"Chico's","contact":{},"location":{"address":"Kauppakeskus Jumbo","crossStreet":"Vantaanportinkatu 3","lat":60.29109222632023,"lng":24.965057858816362,"labeledLatLngs":[{"label":"display","lat":60.29109222632023,"lng":24.965057858816362}],"distance":13674,"postalCode":"01510","cc":"FI","city":"Vantaa","state":"Uusimaa","country":"Suomi","formattedAddress":["Kauppakeskus Jumbo (Vantaanportinkatu 3)","01510 Vantaa","Suomi"]},"categories":[{"id":"4bf58dd8d48988d14e941735","name":"American Restaurant","pluralName":"American Restaurants","shortName":"American","icon":{"prefix":"https:\/\/ss3.4sqi.net\/img\/categories_v2\/food\/default_","suffix":".png"},"primary":true}],"verified":true,"stats":{"tipCount":0,"usersCount":0,"checkinsCount":0,"visitsCount":0},"beenHere":{"count":0,"lastCheckinExpiredAt":0,"marked":false,"unconfirmedCount":0},"hereNow":{"count":0,"summary":"Nobody here","groups":[]},"referralId":"v-1604765422","venueChains":[],"hasPerk":false},{"id":"4c2f64316f1fef3b0e87eb3d","name":"Chico's","contact":{},"location":{"address":"Tikkuraitti 13","lat":60.2933793174727,"lng":25.036846559365735,"labeledLatLngs":[{"label":"display","lat":60.2933793174727,"lng":25.036846559365735}],"distance":15205,"postalCode":"01300","cc":"FI","city":"Vantaa","state":"Uusimaa","country":"Suomi","formattedAddress":["Tikkuraitti 13","01300 Vantaa","Suomi"]},"categories":[{"id":"4bf58dd8d48988d14e941735","name":"American Restaurant","pluralName":"American Restaurants","shortName":"American","icon":{"prefix":"https:\/\/ss3.4sqi.net\/img\/categories_v2\/food\/default_","suffix":".png"},"primary":true}],"verified":true,"stats":{"tipCount":0,"usersCount":0,"checkinsCount":0,"visitsCount":0},"beenHere":{"count":0,"lastCheckinExpiredAt":0,"marked":false,"unconfirmedCount":0},"hereNow":{"count":0,"summary":"Nobody here","groups":[]},"referralId":"v-1604765422","venueChains":[],"hasPerk":false},{"id":"5817125738fa73296b651abb","name":"O'Learys","contact":{},"location":{"address":"Kauppakeskus Iso Omena","crossStreet":"Suomenlahdentie 1","lat":60.159828829066136,"lng":24.73833024501801,"labeledLatLngs":[{"label":"display","lat":60.159828829066136,"lng":24.73833024501801}],"distance":9906,"postalCode":"02230","cc":"FI","neighborhood":"Matinkylä","city":"Espoo","state":"Uusimaa","country":"Suomi","formattedAddress":["Kauppakeskus Iso Omena (Suomenlahdentie 1)","02230 Espoo","Suomi"]},"categories":[{"id":"4bf58dd8d48988d14e941735","name":"American Restaurant","pluralName":"American Restaurants","shortName":"American","icon":{"prefix":"https:\/\/ss3.4sqi.net\/img\/categories_v2\/food\/default_","suffix":".png"},"primary":true}],"verified":true,"stats":{"tipCount":0,"usersCount":0,"checkinsCount":0,"visitsCount":0},"beenHere":{"count":0,"lastCheckinExpiredAt":0,"marked":false,"unconfirmedCount":0},"hereNow":{"count":0,"summary":"Nobody here","groups":[]},"referralId":"v-1604765422","venueChains":[],"hasPerk":false},{"id":"4bac7facf964a520cff73ae3","name":"Chico's","contact":{},"location":{"address":"Leppävaarankatu 3-9","lat":60.21789067183981,"lng":24.810779769209763,"labeledLatLngs":[{"label":"display","lat":60.21789067183981,"lng":24.810779769209763}],"distance":7836,"postalCode":"02600","cc":"FI","city":"Espoo","state":"Uusimaa","country":"Suomi","formattedAddress":["Leppävaarankatu 3-9","02600 Espoo","Suomi"]},"categories":[{"id":"4bf58dd8d48988d14e941735","name":"American Restaurant","pluralName":"American Restaurants","shortName":"American","icon":{"prefix":"https:\/\/ss3.4sqi.net\/img\/categories_v2\/food\/default_","suffix":".png"},"primary":true}],"verified":true,"stats":{"tipCount":0,"usersCount":0,"checkinsCount":0,"visitsCount":0},"beenHere":{"count":0,"lastCheckinExpiredAt":0,"marked":false,"unconfirmedCount":0},"hereNow":{"count":0,"summary":"Nobody here","groups":[]},"referralId":"v-1604765422","venueChains":[],"hasPerk":false},{"id":"4ba3b987f964a520945838e3","name":"Chico's","contact":{},"location":{"address":"Viikintori 3","lat":60.22721598199422,"lng":25.009397640824318,"labeledLatLngs":[{"label":"display","lat":60.22721598199422,"lng":25.009397640824318}],"distance":8145,"postalCode":"00790","cc":"FI","city":"Helsinki","state":"Uusimaa","country":"Suomi","formattedAddress":["Viikintori 3","00790 Helsinki","Suomi"]},"categories":[{"id":"4bf58dd8d48988d14e941735","name":"American Restaurant","pluralName":"American Restaurants","shortName":"American","icon":{"prefix":"https:\/\/ss3.4sqi.net\/img\/categories_v2\/food\/default_","suffix":".png"},"primary":true}],"verified":true,"stats":{"tipCount":0,"usersCount":0,"checkinsCount":0,"visitsCount":0},"beenHere":{"count":0,"lastCheckinExpiredAt":0,"marked":false,"unconfirmedCount":0},"hereNow":{"count":0,"summary":"Nobody here","groups":[]},"referralId":"v-1604765422","venueChains":[],"hasPerk":false},{"id":"4b3f18bef964a520fda325e3","name":"Amarillo","contact":{},"location":{"address":"Viihdekeskus Flamingo","crossStreet":"Tasetie 8","lat":60.290300216823496,"lng":24.969478162446784,"labeledLatLngs":[{"label":"display","lat":60.290300216823496,"lng":24.969478162446784}],"distance":13639,"postalCode":"01510","cc":"FI","neighborhood":"Pakkala","city":"Vantaa","country":"Suomi","formattedAddress":["Viihdekeskus Flamingo (Tasetie 8)","01510 Vantaa","Suomi"]},"categories":[{"id":"4bf58dd8d48988d1c1941735","name":"Mexican Restaurant","pluralName":"Mexican Restaurants","shortName":"Mexican","icon":{"prefix":"https:\/\/ss3.4sqi.net\/img\/categories_v2\/food\/mexican_","suffix":".png"},"primary":true}],"verified":true,"stats":{"tipCount":0,"usersCount":0,"checkinsCount":0,"visitsCount":0},"beenHere":{"count":0,"lastCheckinExpiredAt":0,"marked":false,"unconfirmedCount":0},"hereNow":{"count":0,"summary":"Nobody here","groups":[]},"referralId":"v-1604765422","venueChains":[],"hasPerk":false},{"id":"4b1120adf964a520397823e3","name":"Chico's","contact":{},"location":{"address":"Kauppakeskus Arabia","lat":60.20261954563827,"lng":24.967114627361298,"labeledLatLngs":[{"label":"display","lat":60.20261954563827,"lng":24.967114627361298}],"distance":4546,"postalCode":"00550","cc":"FI","city":"Helsinki","state":"Uusimaa","country":"Suomi","formattedAddress":["Kauppakeskus Arabia","00550 Helsinki","Suomi"]},"categories":[{"id":"4bf58dd8d48988d14e941735","name":"American Restaurant","pluralName":"American Restaurants","shortName":"American","icon":{"prefix":"https:\/\/ss3.4sqi.net\/img\/categories_v2\/food\/default_","suffix":".png"},"primary":true}],"verified":true,"stats":{"tipCount":0,"usersCount":0,"checkinsCount":0,"visitsCount":0},"beenHere":{"count":0,"lastCheckinExpiredAt":0,"marked":false,"unconfirmedCount":0},"hereNow":{"count":0,"summary":"Nobody here","groups":[]},"referralId":"v-1604765422","venueChains":[],"hasPerk":false},{"id":"4ba3c17ef964a520d15b38e3","name":"Chico's","contact":{},"location":{"address":"Kauppakeskus Columbus","crossStreet":"Vuotie 45","lat":60.20814486148169,"lng":25.144106913925704,"labeledLatLngs":[{"label":"display","lat":60.20814486148169,"lng":25.144106913925704}],"distance":13300,"postalCode":"00980","cc":"FI","city":"Helsinki","state":"Uusimaa","country":"Suomi","formattedAddress":["Kauppakeskus Columbus (Vuotie 45)","00980 Helsinki","Suomi"]},"categories":[{"id":"4bf58dd8d48988d14e941735","name":"American Restaurant","pluralName":"American Restaurants","shortName":"American","icon":{"prefix":"https:\/\/ss3.4sqi.net\/img\/categories_v2\/food\/default_","suffix":".png"},"primary":true}],"verified":true,"stats":{"tipCount":0,"usersCount":0,"checkinsCount":0,"visitsCount":0},"beenHere":{"count":0,"lastCheckinExpiredAt":0,"marked":false,"unconfirmedCount":0},"hereNow":{"count":0,"summary":"Nobody here","groups":[]},"referralId":"v-1604765422","venueChains":[],"hasPerk":false},{"id":"56162afb498e06d0c3d0f98f","name":"O'Learys","contact":{},"location":{"address":"Leppävaarankatu 3-9","lat":60.2187892,"lng":24.8124676,"labeledLatLngs":[{"label":"display","lat":60.2187892,"lng":24.8124676}],"distance":7835,"postalCode":"02600","cc":"FI","neighborhood":"Leppävaara","city":"Espoo","state":"Uusimaa","country":"Suomi","formattedAddress":["Leppävaarankatu 3-9","02600 Espoo","Suomi"]},"categories":[{"id":"4bf58dd8d48988d14e941735","name":"American Restaurant","pluralName":"American Restaurants","shortName":"American","icon":{"prefix":"https:\/\/ss3.4sqi.net\/img\/categories_v2\/food\/default_","suffix":".png"},"primary":true}],"verified":true,"stats":{"tipCount":0,"usersCount":0,"checkinsCount":0,"visitsCount":0},"beenHere":{"count":0,"lastCheckinExpiredAt":0,"marked":false,"unconfirmedCount":0},"hereNow":{"count":0,"summary":"Nobody here","groups":[]},"referralId":"v-1604765422","venueChains":[],"hasPerk":false},{"id":"4b4887e3f964a520d24e26e3","name":"Ravintola Oklahoma","contact":{},"location":{"address":"Tikkuraitti 15","lat":60.29367,"lng":25.03419,"labeledLatLngs":[{"label":"display","lat":60.29367,"lng":25.03419}],"distance":15170,"postalCode":"01300","cc":"FI","city":"Vantaa","state":"Uusimaa","country":"Suomi","formattedAddress":["Tikkuraitti 15","01300 Vantaa","Suomi"]},"categories":[{"id":"4bf58dd8d48988d1cc941735","name":"Steakhouse","pluralName":"Steakhouses","shortName":"Steakhouse","icon":{"prefix":"https:\/\/ss3.4sqi.net\/img\/categories_v2\/food\/steakhouse_","suffix":".png"},"primary":true}],"verified":false,"stats":{"tipCount":0,"usersCount":0,"checkinsCount":0,"visitsCount":0},"beenHere":{"count":0,"lastCheckinExpiredAt":0,"marked":false,"unconfirmedCount":0},"hereNow":{"count":0,"summary":"Nobody here","groups":[]},"referralId":"v-1604765422","venueChains":[],"hasPerk":false},{"id":"5284952e498e67a10aa791f2","name":"Maku&Pala","contact":{},"location":{"lat":60.39567183465218,"lng":25.109373541282213,"labeledLatLngs":[{"label":"display","lat":60.39567183465218,"lng":25.109373541282213}],"distance":27224,"cc":"FI","country":"Suomi","formattedAddress":["Suomi"]},"categories":[{"id":"4bf58dd8d48988d14e941735","name":"American Restaurant","pluralName":"American Restaurants","shortName":"American","icon":{"prefix":"https:\/\/ss3.4sqi.net\/img\/categories_v2\/food\/default_","suffix":".png"},"primary":true}],"verified":false,"stats":{"tipCount":0,"usersCount":0,"checkinsCount":0,"visitsCount":0},"beenHere":{"count":0,"lastCheckinExpiredAt":0,"marked":false,"unconfirmedCount":0},"hereNow":{"count":0,"summary":"Nobody here","groups":[]},"referralId":"v-1604765422","venueChains":[],"hasPerk":false},{"id":"5805e4dd38fa86cde8cd86fe","name":"Kitchen & Table","contact":{},"location":{"address":"Clarion Hotel Helsinki","crossStreet":"Tyynenmerenkatu 2","lat":60.15920450732779,"lng":24.9217605010429,"labeledLatLngs":[{"label":"display","lat":60.15920450732779,"lng":24.9217605010429}],"distance":1320,"postalCode":"00220","cc":"FI","city":"Helsinki","state":"Uusimaa","country":"Suomi","formattedAddress":["Clarion Hotel Helsinki (Tyynenmerenkatu 2)","00220 Helsinki","Suomi"]},"categories":[{"id":"4bf58dd8d48988d157941735","name":"New American Restaurant","pluralName":"New American Restaurants","shortName":"New American","icon":{"prefix":"https:\/\/ss3.4sqi.net\/img\/categories_v2\/food\/newamerican_","suffix":".png"},"primary":true}],"verified":false,"stats":{"tipCount":0,"usersCount":0,"checkinsCount":0,"visitsCount":0},"beenHere":{"count":0,"lastCheckinExpiredAt":0,"marked":false,"unconfirmedCount":0},"hereNow":{"count":0,"summary":"Nobody here","groups":[]},"referralId":"v-1604765422","venueChains":[],"hasPerk":false},{"id":"56c49459cd104835eb039349","name":"Classic American Diner","contact":{},"location":{"address":"Vantaanportinkatu 3","lat":60.29198966037206,"lng":24.96404839300216,"labeledLatLngs":[{"label":"display","lat":60.29198966037206,"lng":24.96404839300216}],"distance":13761,"postalCode":"01510","cc":"FI","city":"Vantaa","state":"Uusimaa","country":"Suomi","formattedAddress":["Vantaanportinkatu 3","01510 Vantaa","Suomi"]},"categories":[{"id":"4bf58dd8d48988d14e941735","name":"American Restaurant","pluralName":"American Restaurants","shortName":"American","icon":{"prefix":"https:\/\/ss3.4sqi.net\/img\/categories_v2\/food\/default_","suffix":".png"},"primary":true}],"verified":false,"stats":{"tipCount":0,"usersCount":0,"checkinsCount":0,"visitsCount":0},"beenHere":{"count":0,"lastCheckinExpiredAt":0,"marked":false,"unconfirmedCount":0},"hereNow":{"count":0,"summary":"Nobody here","groups":[]},"referralId":"v-1604765422","venueChains":[],"hasPerk":false},{"id":"529339e911d26e8f9e301f75","name":"Kiila","contact":{},"location":{"lat":60.342086,"lng":24.920381,"labeledLatLngs":[{"label":"display","lat":60.342086,"lng":24.920381}],"distance":19080,"cc":"FI","country":"Suomi","formattedAddress":["Suomi"]},"categories":[{"id":"4bf58dd8d48988d14e941735","name":"American Restaurant","pluralName":"American Restaurants","shortName":"American","icon":{"prefix":"https:\/\/ss3.4sqi.net\/img\/categories_v2\/food\/default_","suffix":".png"},"primary":true}],"verified":false,"stats":{"tipCount":0,"usersCount":0,"checkinsCount":0,"visitsCount":0},"beenHere":{"count":0,"lastCheckinExpiredAt":0,"marked":false,"unconfirmedCount":0},"hereNow":{"count":0,"summary":"Nobody here","groups":[]},"referralId":"v-1604765422","venueChains":[],"hasPerk":false},{"id":"5817125138fa862eb166e59c","name":"O'Learys","contact":{},"location":{"address":"Terminaali 2","crossStreet":"HEL Airport","lat":60.3180776108504,"lng":24.96541390253697,"labeledLatLngs":[{"label":"display","lat":60.3180776108504,"lng":24.96541390253697}],"distance":16632,"postalCode":"01530","cc":"FI","city":"Vantaa","state":"Uusimaa","country":"Suomi","formattedAddress":["Terminaali 2 (HEL Airport)","01530 Vantaa","Suomi"]},"categories":[{"id":"4bf58dd8d48988d14e941735","name":"American Restaurant","pluralName":"American Restaurants","shortName":"American","icon":{"prefix":"https:\/\/ss3.4sqi.net\/img\/categories_v2\/food\/default_","suffix":".png"},"primary":true}],"verified":true,"stats":{"tipCount":0,"usersCount":0,"checkinsCount":0,"visitsCount":0},"beenHere":{"count":0,"lastCheckinExpiredAt":0,"marked":false,"unconfirmedCount":0},"hereNow":{"count":0,"summary":"Nobody here","groups":[]},"referralId":"v-1604765422","venueChains":[],"hasPerk":false},{"id":"584589b3668af751c28c918f","name":"Sori Taproom","contact":{},"location":{"address":"Vuorikatu 16","crossStreet":"Kaisaniemenkatu","lat":60.17196260035701,"lng":24.94743537626617,"labeledLatLngs":[{"label":"display","lat":60.17196260035701,"lng":24.94743537626617}],"distance":1753,"postalCode":"00100","cc":"FI","neighborhood":"Kluuvi","city":"Helsinki","state":"Uusimaa","country":"Suomi","formattedAddress":["Vuorikatu 16 (Kaisaniemenkatu)","00100 Helsinki","Suomi"]},"categories":[{"id":"56aa371ce4b08b9a8d57356c","name":"Beer Bar","pluralName":"Beer Bars","shortName":"Beer Bar","icon":{"prefix":"https:\/\/ss3.4sqi.net\/img\/categories_v2\/nightlife\/pub_","suffix":".png"},"primary":true}],"verified":true,"stats":{"tipCount":0,"usersCount":0,"checkinsCount":0,"visitsCount":0},"beenHere":{"count":0,"lastCheckinExpiredAt":0,"marked":false,"unconfirmedCount":0},"hereNow":{"count":0,"summary":"Nobody here","groups":[]},"referralId":"v-1604765422","venueChains":[],"hasPerk":false},{"id":"5243f54c11d2a9f4db6fce3a","name":"O'Learys","contact":{},"location":{"address":"Kauppakeskus Forum","crossStreet":"Kukontori","lat":60.1688406811977,"lng":24.93836611642817,"labeledLatLngs":[{"label":"display","lat":60.1688406811977,"lng":24.93836611642817}],"distance":1262,"postalCode":"00100","cc":"FI","city":"Helsinki","country":"Suomi","formattedAddress":["Kauppakeskus Forum (Kukontori)","00100 Helsinki","Suomi"]},"categories":[{"id":"4bf58dd8d48988d14e941735","name":"American Restaurant","pluralName":"American Restaurants","shortName":"American","icon":{"prefix":"https:\/\/ss3.4sqi.net\/img\/categories_v2\/food\/default_","suffix":".png"},"primary":true}],"verified":true,"stats":{"tipCount":0,"usersCount":0,"checkinsCount":0,"visitsCount":0},"beenHere":{"count":0,"lastCheckinExpiredAt":0,"marked":false,"unconfirmedCount":0},"venuePage":{"id":"70511848"},"hereNow":{"count":0,"summary":"Nobody here","groups":[]},"referralId":"v-1604765422","venueChains":[],"hasPerk":false},{"id":"4b603bfaf964a52038db29e3","name":"Memphis Hesari","contact":{},"location":{"address":"Original Sokos Hotel Helsinki","crossStreet":"Kluuvikatu 8","lat":60.169825753392814,"lng":24.947019811650346,"labeledLatLngs":[{"label":"display","lat":60.169825753392814,"lng":24.947019811650346}],"distance":1727,"postalCode":"00100","cc":"FI","city":"Helsinki","state":"Uusimaa","country":"Suomi","formattedAddress":["Original Sokos Hotel Helsinki (Kluuvikatu 8)","00100 Helsinki","Suomi"]},"categories":[{"id":"4bf58dd8d48988d14e941735","name":"American Restaurant","pluralName":"American Restaurants","shortName":"American","icon":{"prefix":"https:\/\/ss3.4sqi.net\/img\/categories_v2\/food\/default_","suffix":".png"},"primary":true}],"verified":true,"stats":{"tipCount":0,"usersCount":0,"checkinsCount":0,"visitsCount":0},"beenHere":{"count":0,"lastCheckinExpiredAt":0,"marked":false,"unconfirmedCount":0},"hereNow":{"count":0,"summary":"Nobody here","groups":[]},"referralId":"v-1604765422","venueChains":[],"hasPerk":false},{"id":"56bcc3c1498e7be180d65d6b","name":"Penny","contact":{},"location":{"address":"Uudenmaankatu 13","lat":60.164708023820616,"lng":24.94130754667389,"labeledLatLngs":[{"label":"display","lat":60.164708023820616,"lng":24.94130754667389}],"distance":1558,"postalCode":"00120","cc":"FI","city":"Helsinki","state":"Uusimaa","country":"Suomi","formattedAddress":["Uudenmaankatu 13","00120 Helsinki","Suomi"]},"categories":[{"id":"4bf58dd8d48988d14e941735","name":"American Restaurant","pluralName":"American Restaurants","shortName":"American","icon":{"prefix":"https:\/\/ss3.4sqi.net\/img\/categories_v2\/food\/default_","suffix":".png"},"primary":true}],"verified":false,"stats":{"tipCount":0,"usersCount":0,"checkinsCount":0,"visitsCount":0},"beenHere":{"count":0,"lastCheckinExpiredAt":0,"marked":false,"unconfirmedCount":0},"hereNow":{"count":0,"summary":"Nobody here","groups":[]},"referralId":"v-1604765422","venueChains":[],"hasPerk":false},{"id":"555da546498ec84f7f80c149","name":"Southpark Restaurant","contact":{},"location":{"address":"Bulevardi 40","lat":60.16269996711018,"lng":24.933159083739056,"labeledLatLngs":[{"label":"display","lat":60.16269996711018,"lng":24.933159083739056}],"distance":1307,"cc":"FI","country":"Suomi","formattedAddress":["Bulevardi 40","Suomi"]},"categories":[{"id":"4bf58dd8d48988d14e941735","name":"American Restaurant","pluralName":"American Restaurants","shortName":"American","icon":{"prefix":"https:\/\/ss3.4sqi.net\/img\/categories_v2\/food\/default_","suffix":".png"},"primary":true}],"verified":true,"stats":{"tipCount":0,"usersCount":0,"checkinsCount":0,"visitsCount":0},"beenHere":{"count":0,"lastCheckinExpiredAt":0,"marked":false,"unconfirmedCount":0},"venuePage":{"id":"136819041"},"hereNow":{"count":0,"summary":"Nobody here","groups":[]},"referralId":"v-1604765422","venueChains":[],"hasPerk":false},{"id":"4b780a30f964a52024b32ee3","name":"Chico's","contact":{},"location":{"address":"Mannerheimintie 68","lat":60.1830963542142,"lng":24.924856424331665,"labeledLatLngs":[{"label":"display","lat":60.1830963542142,"lng":24.924856424331665}],"distance":1466,"postalCode":"00250","cc":"FI","city":"Helsinki","state":"Uusimaa","country":"Suomi","formattedAddress":["Mannerheimintie 68","00250 Helsinki","Suomi"]},"categories":[{"id":"4bf58dd8d48988d14e941735","name":"American Restaurant","pluralName":"American Restaurants","shortName":"American","icon":{"prefix":"https:\/\/ss3.4sqi.net\/img\/categories_v2\/food\/default_","suffix":".png"},"primary":true}],"verified":true,"stats":{"tipCount":0,"usersCount":0,"checkinsCount":0,"visitsCount":0},"beenHere":{"count":0,"lastCheckinExpiredAt":0,"marked":false,"unconfirmedCount":0},"hereNow":{"count":0,"summary":"Nobody here","groups":[]},"referralId":"v-1604765422","venueChains":[],"hasPerk":false},{"id":"525d50ad498e6f6dc965799f","name":"Smoothdog Machine","contact":{},"location":{"lat":60.169532,"lng":24.941669,"labeledLatLngs":[{"label":"display","lat":60.169532,"lng":24.941669}],"distance":1434,"cc":"FI","country":"Suomi","formattedAddress":["Suomi"]},"categories":[{"id":"4bf58dd8d48988d14e941735","name":"American Restaurant","pluralName":"American Restaurants","shortName":"American","icon":{"prefix":"https:\/\/ss3.4sqi.net\/img\/categories_v2\/food\/default_","suffix":".png"},"primary":true}],"verified":false,"stats":{"tipCount":0,"usersCount":0,"checkinsCount":0,"visitsCount":0},"beenHere":{"count":0,"lastCheckinExpiredAt":0,"marked":false,"unconfirmedCount":0},"hereNow":{"count":0,"summary":"Nobody here","groups":[]},"referralId":"v-1604765422","venueChains":[],"hasPerk":false},{"id":"55110f20498efc6dd18bc6c2","name":"Luokka 102","contact":{},"location":{"lat":60.267023,"lng":25.056117,"labeledLatLngs":[{"label":"display","lat":60.267023,"lng":25.056117}],"distance":13232,"cc":"FI","country":"Suomi","formattedAddress":["Suomi"]},"categories":[{"id":"4bf58dd8d48988d14e941735","name":"American Restaurant","pluralName":"American Restaurants","shortName":"American","icon":{"prefix":"https:\/\/ss3.4sqi.net\/img\/categories_v2\/food\/default_","suffix":".png"},"primary":true}],"verified":false,"stats":{"tipCount":0,"usersCount":0,"checkinsCount":0,"visitsCount":0},"beenHere":{"count":0,"lastCheckinExpiredAt":0,"marked":false,"unconfirmedCount":0},"hereNow":{"count":0,"summary":"Nobody here","groups":[]},"referralId":"v-1604765422","venueChains":[],"hasPerk":false}],"confident":false}}