{"meta":{"code":200,"requestId":"5fa6c7f8812cc46ce97544c5"},"response":{"venues":[{"id":"5a48bc6660255e28c595f57e","name":"Kohtauspaikat","contact":{},"location":{"address":"Kampintori","lat":60.16789,"lng":24.93165,"labeledLatLngs":[{"label":"display","lat":60.16789,"lng":24.93165}],"distance":927,"postalCode":"00100","cc":"FI","neighborhood":"Kamppi","city":"Helsinki","state":"Uusimaa","country":"Suomi","formattedAddress":["Kampintori","00100 Helsinki","Suomi"]},"categories":[{"id":"52e81612bcbc57f1066b79ed","name":"Outdoor Sculpture","pluralName":"Outdoor Sculptures","shortName":"Outdoor Sculpture","icon":{"prefix":"https:\/\/ss3.4sqi.net\/img\/categories_v2\/parks_outdoors\/sculpture_","suffix":".png"},"primary":true}],"verified":false,"stats":{"tipCount":0,"usersCount":0,"checkinsCount":0,"visitsCount":0},"beenHere":{"count":0,"lastCheckinExpiredAt":0,"marked":false,"unconfirmedCount":0},"hereNow":{"count":0,"summary":"Nobody here","groups":[]},"referralId":"v-1604765688","venueChains":[],"hasPerk":false},{"id":"4ef6daea0e61a0846d0a4a35","name":"Sirocco","contact":{},"location":{"address":"Aavikkotuulen piha (yhteispiha 6)","crossStreet":"btwn Muotoilijankatu & -piha & Posliinipiha","lat":60.2101948806665,"lng":24.98108029926103,"labeledLatLngs":[{"label":"display","lat":60.2101948806665,"lng":24.98108029926103}],"distance":5687,"postalCode":"00560","cc":"FI","city":"Helsinki","state":"Uusimaa","country":"Suomi","formattedAddress":["Aavikkotuulen piha (yhteispiha 6) (btwn Muotoilijankatu & -piha & Posliinipiha)","00560 Helsinki","Suomi"]},"categories":[{"id":"4bf58dd8d48988d12d941735","name":"Monument \/ Landmark","pluralName":"Monuments \/ Landmarks","shortName":"Landmark","icon":{"prefix":"https:\/\/ss3.4sqi.net\/img\/categories_v2\/building\/government_monument_","suffix":".png"},"primary":true}],"verified":false,"stats":{"tipCount":0,"usersCount":0,"checkinsCount":0,"visitsCount":0},"beenHere":{"count":0,"lastCheckinExpiredAt":0,"marked":false,"unconfirmedCount":0},"hereNow":{"count":0,"summary":"Nobody here","groups":[]},"referralId":"v-1604765688","venueChains":[],"hasPerk":false},{"id":"4ede60d80e61d46adcae5c1a","name":"Tapio Rautavaaran muistomerkki \/ Kulkurin uni","contact":{},"location":{"address":"Oulunkylän tori","lat":60.22978359479178,"lng":24.965326460053255,"labeledLatLngs":[{"label":"display","lat":60.22978359479178,"lng":24.965326460053255}],"distance":7123,"cc":"FI","city":"Helsinki","state":"Uusimaa","country":"Suomi","formattedAddress":["Oulunkylän tori","Helsinki","Suomi"]},"categories":[{"id":"52e81612bcbc57f1066b79ed","name":"Outdoor Sculpture","pluralName":"Outdoor Sculptures","shortName":"Outdoor Sculpture","icon":{"prefix":"https:\/\/ss3.4sqi.net\/img\/categories_v2\/parks_outdoors\/sculpture_","suffix":".png"},"primary":true}],"verified":false,"stats":{"tipCount":0,"usersCount":0,"checkinsCount":0,"visitsCount":0},"beenHere":{"count":0,"lastCheckinExpiredAt":0,"marked":false,"unconfirmedCount":0},"hereNow":{"count":0,"summary":"Nobody here","groups":[]},"referralId":"v-1604765688","venueChains":[],"hasPerk":false},{"id":"538af0f2498eff328348bc0d","name":"Suvilahden graffitiseinä","contact":{},"location":{"lat":60.185606,"lng":24.973753,"labeledLatLngs":[{"label":"display","lat":60.185606,"lng":24.973753}],"distance":3608,"cc":"FI","city":"Helsinki","state":"Uusimaa","country":"Suomi","formattedAddress":["Helsinki","Suomi"]},"categories":[{"id":"52e81612bcbc57f1066b79ee","name":"Street Art","pluralName":"Street Art Installations","shortName":"Street Art","icon":{"prefix":"https:\/\/ss3.4sqi.net\/img\/categories_v2\/arts_entertainment\/default_","suffix":".png"},"primary":true}],"verified":false,"stats":{"tipCount":0,"usersCount":0,"checkinsCount":0,"visitsCount":0},"beenHere":{"count":0,"lastCheckinExpiredAt":0,"marked":false,"unconfirmedCount":0},"hereNow":{"count":0,"summary":"Nobody here","groups":[]},"referralId":"v-1604765688","venueChains":[],"hasPerk":false},{"id":"4bb3905342959c74a81e222c","name":"Aleksanteri II -patsas","contact":{},"location":{"address":"Senaatintori","crossStreet":"Helsinki Cathedral","lat":60.169459527376716,"lng":24.95222562192228,"labeledLatLngs":[{"label":"display","lat":60.169459527376716,"lng":24.95222562192228}],"distance":2017,"postalCode":"00170","cc":"FI","city":"Helsinki","state":"Uusimaa","country":"Suomi","formattedAddress":["Senaatintori (Helsinki Cathedral)","00170 Helsinki","Suomi"]},"categories":[{"id":"4bf58dd8d48988d12d941735","name":"Monument \/ Landmark","pluralName":"Monuments \/ Landmarks","shortName":"Landmark","icon":{"prefix":"https:\/\/ss3.4sqi.net\/img\/categories_v2\/building\/government_monument_","suffix":".png"},"primary":true}],"verified":false,"stats":{"tipCount":0,"usersCount":0,"checkinsCount":0,"visitsCount":0},"beenHere":{"count":0,"lastCheckinExpiredAt":0,"marked":false,"unconfirmedCount":0},"hereNow":{"count":0,"summary":"Nobody here","groups":[]},"referralId":"v-1604765688","venueChains":[],"hasPerk":false},{"id":"51f95346498e21ea62ceeac9","name":"Helsingin pommituksissa menehtyneiden muistomerkki","contact":{},"location":{"address":"Malmin hautausmaa","lat":60.229699638434546,"lng":25.029303842350213,"labeledLatLngs":[{"label":"display","lat":60.229699638434546,"lng":25.029303842350213}],"distance":9083,"postalCode":"00710","cc":"FI","city":"Helsinki","state":"Uusimaa","country":"Suomi","formattedAddress":["Malmin hautausmaa","00710 Helsinki","Suomi"]},"categories":[{"id":"52e81612bcbc57f1066b79ed","name":"Outdoor Sculpture","pluralName":"Outdoor Sculptures","shortName":"Outdoor Sculpture","icon":{"prefix":"https:\/\/ss3.4sqi.net\/img\/categories_v2\/parks_outdoors\/sculpture_","suffix":".png"},"primary":true}],"verified":false,"stats":{"tipCount":0,"usersCount":0,"checkinsCount":0,"visitsCount":0},"beenHere":{"count":0,"lastCheckinExpiredAt":0,"marked":false,"unconfirmedCount":0},"hereNow":{"count":0,"summary":"Nobody here","groups":[]},"referralId":"v-1604765688","venueChains":[],"hasPerk":false},{"id":"4fcb6eeae4b0c665076ad726","name":"Kohottava voima (veistos)","contact":{},"location":{"address":"Telakkapuistikko","lat":60.159366,"lng":24.932756,"labeledLatLngs":[{"label":"display","lat":60.159366,"lng":24.932756}],"distance":1570,"postalCode":"00150","cc":"FI","city":"Helsinki","state":"Uusimaa","country":"Suomi","formattedAddress":["Telakkapuistikko","00150 Helsinki","Suomi"]},"categories":[{"id":"52e81612bcbc57f1066b79ed","name":"Outdoor Sculpture","pluralName":"Outdoor Sculptures","shortName":"Outdoor Sculpture","icon":{"prefix":"https:\/\/ss3.4sqi.net\/img\/categories_v2\/parks_outdoors\/sculpture_","suffix":".png"},"primary":true}],"verified":false,"stats":{"tipCount":0,"usersCount":0,"checkinsCount":0,"visitsCount":0},"beenHere":{"count":0,"lastCheckinExpiredAt":0,"marked":false,"unconfirmedCount":0},"hereNow":{"count":0,"summary":"Nobody here","groups":[]},"referralId":"v-1604765688","venueChains":[],"hasPerk":false},{"id":"59947fa9da5ede78cae4df2a","name":"Raivaajien kaivo \/ Leikkivät pojat III","contact":{},"location":{"lat":60.184723,"lng":25.002182,"labeledLatLngs":[{"label":"display","lat":60.184723,"lng":25.002182}],"distance":5026,"postalCode":"00570","cc":"FI","city":"Helsinki","state":"Uusimaa","country":"Suomi","formattedAddress":["00570 Helsinki","Suomi"]},"categories":[{"id":"56aa371be4b08b9a8d573547","name":"Fountain","pluralName":"Fountains","shortName":"Fountain","icon":{"prefix":"https:\/\/ss3.4sqi.net\/img\/categories_v2\/parks_outdoors\/plaza_","suffix":".png"},"primary":true}],"verified":false,"stats":{"tipCount":0,"usersCount":0,"checkinsCount":0,"visitsCount":0},"beenHere":{"count":0,"lastCheckinExpiredAt":0,"marked":false,"unconfirmedCount":0},"hereNow":{"count":0,"summary":"Nobody here","groups":[]},"referralId":"v-1604765688","venueChains":[],"hasPerk":false},{"id":"52051ebe11d263e517d0b94f","name":"Arvid Morne - muistopatsas","contact":{},"location":{"lat":60.15400314331055,"lng":24.961536407470703,"labeledLatLngs":[{"label":"display","lat":60.15400314331055,"lng":24.961536407470703}],"distance":3138,"cc":"FI","country":"Suomi","formattedAddress":["Suomi"]},"categories":[{"id":"52e81612bcbc57f1066b79ed","name":"Outdoor Sculpture","pluralName":"Outdoor Sculptures","shortName":"Outdoor Sculpture","icon":{"prefix":"https:\/\/ss3.4sqi.net\/img\/categories_v2\/parks_outdoors\/sculpture_","suffix":".png"},"primary":true}],"verified":false,"stats":{"tipCount":0,"usersCount":0,"checkinsCount":0,"visitsCount":0},"beenHere":{"count":0,"lastCheckinExpiredAt":0,"marked":false,"unconfirmedCount":0},"hereNow":{"count":0,"summary":"Nobody here","groups":[]},"referralId":"v-1604765688","venueChains":[],"hasPerk":false},{"id":"4e3b9da718a83d5b282aeda7","name":"M. A. Castrenin muistomerkki","contact":{},"location":{"address":"Matiaksenlehto","crossStreet":"btwn Museokatu & Mannerheimintie","lat":60.17409716784957,"lng":24.93235376425054,"labeledLatLngs":[{"label":"display","lat":60.17409716784957,"lng":24.93235376425054}],"distance":987,"postalCode":"00100","cc":"FI","city":"Helsinki","state":"Uusimaa","country":"Suomi","formattedAddress":["Matiaksenlehto (btwn Museokatu & Mannerheimintie)","00100 Helsinki","Suomi"]},"categories":[{"id":"52e81612bcbc57f1066b79ed","name":"Outdoor Sculpture","pluralName":"Outdoor Sculptures","shortName":"Outdoor Sculpture","icon":{"prefix":"https:\/\/ss3.4sqi.net\/img\/categories_v2\/parks_outdoors\/sculpture_","suffix":".png"},"primary":true}],"verified":false,"stats":{"tipCount":0,"usersCount":0,"checkinsCount":0,"visitsCount":0},"beenHere":{"count":0,"lastCheckinExpiredAt":0,"marked":false,"unconfirmedCount":0},"hereNow":{"count":0,"summary":"Nobody here","groups":[]},"referralId":"v-1604765688","venueChains":[],"hasPerk":false},{"id":"5b509c0c25ecca002ce99ec4","name":"Huminaa Veistos","contact":{},"location":{"address":"Tuomarilantie","lat":60.205494,"lng":24.681244,"labeledLatLngs":[{"label":"display","lat":60.205494,"lng":24.681244}],"distance":13550,"postalCode":"02760","cc":"FI","city":"Espoo","state":"Uusimaa","country":"Suomi","formattedAddress":["Tuomarilantie","02760 Espoo","Suomi"]},"categories":[{"id":"52e81612bcbc57f1066b79ed","name":"Outdoor Sculpture","pluralName":"Outdoor Sculptures","shortName":"Outdoor Sculpture","icon":{"prefix":"https:\/\/ss3.4sqi.net\/img\/categories_v2\/parks_outdoors\/sculpture_","suffix":".png"},"primary":true}],"verified":false,"stats":{"tipCount":0,"usersCount":0,"checkinsCount":0,"visitsCount":0},"beenHere":{"count":0,"lastCheckinExpiredAt":0,"marked":false,"unconfirmedCount":0},"hereNow":{"count":0,"summary":"Nobody here","groups":[]},"referralId":"v-1604765688","venueChains":[],"hasPerk":false},{"id":"5f05a4c4311052255f1ea14a","name":"Taiteen Kotitalo","contact":{},"location":{"lat":60.403125,"lng":25.142047,"labeledLatLngs":[{"label":"display","lat":60.403125,"lng":25.142047}],"distance":28725,"postalCode":"04220","cc":"FI","city":"Kerava","state":"Uusimaa","country":"Suomi","formattedAddress":["04220 Kerava","Suomi"]},"categories":[{"id":"52e81612bcbc57f1066b79ee","name":"Street Art","pluralName":"Street Art Installations","shortName":"Street Art","icon":{"prefix":"https:\/\/ss3.4sqi.net\/img\/categories_v2\/arts_entertainment\/default_","suffix":".png"},"primary":true}],"verified":false,"stats":{"tipCount":0,"usersCount":0,"checkinsCount":0,"visitsCount":0},"beenHere":{"count":0,"lastCheckinExpiredAt":0,"marked":false,"unconfirmedCount":0},"hereNow":{"count":0,"summary":"Nobody here","groups":[]},"referralId":"v-1604765688","venueChains":[],"hasPerk":false},{"id":"573f68d6cd10274768d7ff6a","name":"Mesikämmen muurahaispesällä","contact":{},"location":{"address":"Agricolankatu","lat":60.184001906819894,"lng":24.95215594768524,"distance":2495,"postalCode":"00530","cc":"FI","neighborhood":"Torkkelinmäki","city":"Helsinki","state":"Uusimaa","country":"Suomi","formattedAddress":["Agricolankatu","00530 Helsinki","Suomi"]},"categories":[{"id":"52e81612bcbc57f1066b79ed","name":"Outdoor Sculpture","pluralName":"Outdoor Sculptures","shortName":"Outdoor Sculpture","icon":{"prefix":"https:\/\/ss3.4sqi.net\/img\/categories_v2\/parks_outdoors\/sculpture_","suffix":".png"},"primary":true}],"verified":false,"stats":{"tipCount":0,"usersCount":0,"checkinsCount":0,"visitsCount":0},"beenHere":{"count":0,"lastCheckinExpiredAt":0,"marked":false,"unconfirmedCount":0},"hereNow":{"count":0,"summary":"Nobody here","groups":[]},"referralId":"v-1604765688","venueChains":[],"hasPerk":false},{"id":"50334c20e4b0443114b44c93","name":"Topelius ja lapset","contact":{},"location":{"address":"Korkeavuorenkatu","crossStreet":"Ratakatu","lat":60.163406,"lng":24.94573,"labeledLatLngs":[{"label":"display","lat":60.163406,"lng":24.94573}],"distance":1841,"postalCode":"00120","cc":"FI","city":"Helsinki","state":"Uusimaa","country":"Suomi","formattedAddress":["Korkeavuorenkatu (Ratakatu)","00120 Helsinki","Suomi"]},"categories":[{"id":"4bf58dd8d48988d12d941735","name":"Monument \/ Landmark","pluralName":"Monuments \/ Landmarks","shortName":"Landmark","icon":{"prefix":"https:\/\/ss3.4sqi.net\/img\/categories_v2\/building\/government_monument_","suffix":".png"},"primary":true}],"verified":false,"stats":{"tipCount":0,"usersCount":0,"checkinsCount":0,"visitsCount":0},"beenHere":{"count":0,"lastCheckinExpiredAt":0,"marked":false,"unconfirmedCount":0},"hereNow":{"count":0,"summary":"Nobody here","groups":[]},"referralId":"v-1604765688","venueChains":[],"hasPerk":false},{"id":"507bf658e4b07204c2719a6e","name":"Väinö Tannerin patsas","contact":{},"location":{"address":"Hämeentie","crossStreet":"Kaikukatu","lat":60.18300850603076,"lng":24.958158495386964,"labeledLatLngs":[{"label":"display","lat":60.18300850603076,"lng":24.958158495386964}],"distance":2712,"postalCode":"00530","cc":"FI","city":"Helsinki","state":"Uusimaa","country":"Suomi","formattedAddress":["Hämeentie (Kaikukatu)","00530 Helsinki","Suomi"]},"categories":[{"id":"52e81612bcbc57f1066b79ed","name":"Outdoor Sculpture","pluralName":"Outdoor Sculptures","shortName":"Outdoor Sculpture","icon":{"prefix":"https:\/\/ss3.4sqi.net\/img\/categories_v2\/parks_outdoors\/sculpture_","suffix":".png"},"primary":true}],"verified":false,"stats":{"tipCount":0,"usersCount":0,"checkinsCount":0,"visitsCount":0},"beenHere":{"count":0,"lastCheckinExpiredAt":0,"marked":false,"unconfirmedCount":0},"hereNow":{"count":0,"summary":"Nobody here","groups":[]},"referralId":"v-1604765688","venueChains":[],"hasPerk":false},{"id":"52d298f8498ea0341389f498","name":"Sodanajan naisen muistomerkki","contact":{},"location":{"address":"Porthaninrinne","lat":60.181072773989314,"lng":24.94892187416553,"labeledLatLngs":[{"label":"display","lat":60.181072773989314,"lng":24.94892187416553}],"distance":2163,"postalCode":"00530","cc":"FI","city":"Helsinki","state":"Uusimaa","country":"Suomi","formattedAddress":["Porthaninrinne","00530 Helsinki","Suomi"]},"categories":[{"id":"4bf58dd8d48988d12d941735","name":"Monument \/ Landmark","pluralName":"Monuments \/ Landmarks","shortName":"Landmark","icon":{"prefix":"https:\/\/ss3.4sqi.net\/img\/categories_v2\/building\/government_monument_","suffix":".png"},"primary":true}],"verified":false,"stats":{"tipCount":0,"usersCount":0,"checkinsCount":0,"visitsCount":0},"beenHere":{"count":0,"lastCheckinExpiredAt":0,"marked":false,"unconfirmedCount":0},"hereNow":{"count":0,"summary":"Nobody here","groups":[]},"referralId":"v-1604765688","venueChains":[],"hasPerk":false},{"id":"5b796cc2be707800391c477d","name":"Omilla Jaloilla","contact":{},"location":{"address":"Niittykatu","lat":60.170462,"lng":24.761653,"labeledLatLngs":[{"label":"display","lat":60.170462,"lng":24.761653}],"distance":8539,"postalCode":"02200","cc":"FI","city":"Espoo","state":"Uusimaa","country":"Suomi","formattedAddress":["Niittykatu","02200 Espoo","Suomi"]},"categories":[{"id":"52e81612bcbc57f1066b79ed","name":"Outdoor Sculpture","pluralName":"Outdoor Sculptures","shortName":"Outdoor Sculpture","icon":{"prefix":"https:\/\/ss3.4sqi.net\/img\/categories_v2\/parks_outdoors\/sculpture_","suffix":".png"},"primary":true}],"verified":false,"stats":{"tipCount":0,"usersCount":0,"checkinsCount":0,"visitsCount":0},"beenHere":{"count":0,"lastCheckinExpiredAt":0,"marked":false,"unconfirmedCount":0},"hereNow":{"count":0,"summary":"Nobody here","groups":[]},"referralId":"v-1604765688","venueChains":[],"hasPerk":false},{"id":"4c23d341905a0f47f3c45e60","name":"Merenkulkijoiden ja mereen menehtyneiden muistomerkki","contact":{},"location":{"address":"Merisatamanranta","lat":60.154511678002685,"lng":24.93761322899145,"labeledLatLngs":[{"label":"display","lat":60.154511678002685,"lng":24.93761322899145}],"distance":2167,"cc":"FI","city":"Helsinki","state":"Uusimaa","country":"Suomi","formattedAddress":["Merisatamanranta","Helsinki","Suomi"]},"categories":[{"id":"52e81612bcbc57f1066b79ed","name":"Outdoor Sculpture","pluralName":"Outdoor Sculptures","shortName":"Outdoor Sculpture","icon":{"prefix":"https:\/\/ss3.4sqi.net\/img\/categories_v2\/parks_outdoors\/sculpture_","suffix":".png"},"primary":true}],"verified":false,"stats":{"tipCount":0,"usersCount":0,"checkinsCount":0,"visitsCount":0},"beenHere":{"count":0,"lastCheckinExpiredAt":0,"marked":false,"unconfirmedCount":0},"hereNow":{"count":0,"summary":"Nobody here","groups":[]},"referralId":"v-1604765688","venueChains":[],"hasPerk":false},{"id":"4db3c8306a23c31a030a8022","name":"Rauhanpatsas","contact":{},"location":{"address":"Ehrenströmintie 10","lat":60.15881469990017,"lng":24.961906893330053,"labeledLatLngs":[{"label":"display","lat":60.15881469990017,"lng":24.961906893330053}],"distance":2872,"postalCode":"00140","cc":"FI","city":"Helsinki","state":"Uusimaa","country":"Suomi","formattedAddress":["Ehrenströmintie 10","00140 Helsinki","Suomi"]},"categories":[{"id":"4bf58dd8d48988d12d941735","name":"Monument \/ Landmark","pluralName":"Monuments \/ Landmarks","shortName":"Landmark","icon":{"prefix":"https:\/\/ss3.4sqi.net\/img\/categories_v2\/building\/government_monument_","suffix":".png"},"primary":true}],"verified":false,"stats":{"tipCount":0,"usersCount":0,"checkinsCount":0,"visitsCount":0},"beenHere":{"count":0,"lastCheckinExpiredAt":0,"marked":false,"unconfirmedCount":0},"hereNow":{"count":0,"summary":"Nobody here","groups":[]},"referralId":"v-1604765688","venueChains":[],"hasPerk":false},{"id":"4ee49b00775b86c40458bece","name":"Haaksirikkoiset-patsas","contact":{},"location":{"address":"Tähtitorninmäki","lat":60.161833,"lng":24.955333,"labeledLatLngs":[{"label":"display","lat":60.161833,"lng":24.955333}],"distance":2397,"postalCode":"00140","cc":"FI","city":"Helsinki","state":"Uusimaa","country":"Suomi","formattedAddress":["Tähtitorninmäki","00140 Helsinki","Suomi"]},"categories":[{"id":"52e81612bcbc57f1066b79ed","name":"Outdoor Sculpture","pluralName":"Outdoor Sculptures","shortName":"Outdoor Sculpture","icon":{"prefix":"https:\/\/ss3.4sqi.net\/img\/categories_v2\/parks_outdoors\/sculpture_","suffix":".png"},"primary":true}],"verified":false,"stats":{"tipCount":0,"usersCount":0,"checkinsCount":0,"visitsCount":0},"beenHere":{"count":0,"lastCheckinExpiredAt":0,"marked":false,"unconfirmedCount":0},"hereNow":{"count":0,"summary":"Nobody here","groups":[]},"referralId":"v-1604765688","venueChains":[],"hasPerk":false},{"id":"50758d98e4b0e79f70177a6f","name":"Öljysäiliö 468","contact":{},"location":{"address":"Koirasaarentie 35","lat":60.164794573372,"lng":25.01211740076542,"labeledLatLngs":[{"label":"display","lat":60.164794573372,"lng":25.01211740076542}],"distance":5369,"postalCode":"00870","cc":"FI","city":"Helsinki","state":"Uusimaa","country":"Suomi","formattedAddress":["Koirasaarentie 35","00870 Helsinki","Suomi"]},"categories":[{"id":"507c8c4091d498d9fc8c67a9","name":"Public Art","pluralName":"Public Art","shortName":"Public Art","icon":{"prefix":"https:\/\/ss3.4sqi.net\/img\/categories_v2\/arts_entertainment\/default_","suffix":".png"},"primary":true}],"verified":false,"stats":{"tipCount":0,"usersCount":0,"checkinsCount":0,"visitsCount":0},"beenHere":{"count":0,"lastCheckinExpiredAt":0,"marked":false,"unconfirmedCount":0},"hereNow":{"count":0,"summary":"Nobody here","groups":[]},"referralId":"v-1604765688","venueChains":[],"hasPerk":false},{"id":"53fb34d8498e117d173cbc32","name":"Bad Bad Boy","contact":{},"location":{"address":"Tyynenmerenkatu 11","crossStreet":"Verkkokauppa.com","lat":60.156080466189906,"lng":24.921138002421888,"labeledLatLngs":[{"label":"display","lat":60.156080466189906,"lng":24.921138002421888}],"distance":1653,"postalCode":"00220","cc":"FI","city":"Helsinki, Southern Finland","state":"Etelä-Suomen Lääni","country":"Suomi","formattedAddress":["Tyynenmerenkatu 11 (Verkkokauppa.com)","00220 Helsinki, Southern Finland","Suomi"]},"categories":[{"id":"52e81612bcbc57f1066b79ed","name":"Outdoor Sculpture","pluralName":"Outdoor Sculptures","shortName":"Outdoor Sculpture","icon":{"prefix":"https:\/\/ss3.4sqi.net\/img\/categories_v2\/parks_outdoors\/sculpture_","suffix":".png"},"primary":true}],"verified":true,"stats":{"tipCount":0,"usersCount":0,"checkinsCount":0,"visitsCount":0},"beenHere":{"count":0,"lastCheckinExpiredAt":0,"marked":false,"unconfirmedCount":0},"venuePage":{"id":"121834348"},"hereNow":{"count":0,"summary":"Nobody here","groups":[]},"referralId":"v-1604765688","venueChains":[],"hasPerk":false},{"id":"4bb3945b42959c74f924222c","name":"Kolmen sepän patsas","contact":{},"location":{"address":"Aleksanterinkatu 52","crossStreet":"Mannerheimintie","lat":60.16868562833084,"lng":24.94094807050224,"labeledLatLngs":[{"label":"display","lat":60.16868562833084,"lng":24.94094807050224}],"distance":1406,"postalCode":"00100","cc":"FI","neighborhood":"Kluuvi","city":"Helsinki","state":"Uusimaa","country":"Suomi","formattedAddress":["Aleksanterinkatu 52 (Mannerheimintie)","00100 Helsinki","Suomi"]},"categories":[{"id":"52e81612bcbc57f1066b79ed","name":"Outdoor Sculpture","pluralName":"Outdoor Sculptures","shortName":"Outdoor Sculpture","icon":{"prefix":"https:\/\/ss3.4sqi.net\/img\/categories_v2\/parks_outdoors\/sculpture_","suffix":".png"},"primary":true}],"verified":false,"stats":{"tipCount":0,"usersCount":0,"checkinsCount":0,"visitsCount":0},"beenHere":{"count":0,"lastCheckinExpiredAt":0,"marked":false,"unconfirmedCount":0},"hereNow":{"count":0,"summary":"Nobody here","groups":[]},"referralId":"v-1604765688","venueChains":[],"hasPerk":false},{"id":"4d611c28d7206ea807a4fcf1","name":"Paavo Nurmen patsas","contact":{},"location":{"address":"Paavo Nurmen tie 1","lat":60.184310436334265,"lng":24.92696516898597,"labeledLatLngs":[{"label":"display","lat":60.184310436334265,"lng":24.92696516898597}],"distance":1634,"cc":"FI","city":"Helsinki","state":"Uusimaa","country":"Suomi","formattedAddress":["Paavo Nurmen tie 1","Helsinki","Suomi"]},"categories":[{"id":"52e81612bcbc57f1066b79ed","name":"Outdoor Sculpture","pluralName":"Outdoor Sculptures","shortName":"Outdoor Sculpture","icon":{"prefix":"https:\/\/ss3.4sqi.net\/img\/categories_v2\/parks_outdoors\/sculpture_","suffix":".png"},"primary":true}],"verified":false,"stats":{"tipCount":0,"usersCount":0,"checkinsCount":0,"visitsCount":0},"beenHere":{"count":0,"lastCheckinExpiredAt":0,"marked":false,"unconfirmedCount":0},"hereNow":{"count":0,"summary":"Nobody here","groups":[]},"referralId":"v-1604765688","venueChains":[],"hasPerk":false},{"id":"4e354e5b1f6e9e21ad4c9348","name":"Risto Rytin Patsas","contact":{},"location":{"address":"Pohjoinen Hesperiankatu 9","lat":60.17764821078209,"lng":24.928847409340914,"labeledLatLngs":[{"label":"display","lat":60.17764821078209,"lng":24.928847409340914}],"distance":1055,"postalCode":"00260","cc":"FI","city":"Helsinki","state":"Uusimaa","country":"Suomi","formattedAddress":["Pohjoinen Hesperiankatu 9","00260 Helsinki","Suomi"]},"categories":[{"id":"52e81612bcbc57f1066b79ed","name":"Outdoor Sculpture","pluralName":"Outdoor Sculptures","shortName":"Outdoor Sculpture","icon":{"prefix":"https:\/\/ss3.4sqi.net\/img\/categories_v2\/parks_outdoors\/sculpture_","suffix":".png"},"primary":true}],"verified":false,"stats":{"tipCount":0,"usersCount":0,"checkinsCount":0,"visitsCount":0},"beenHere":{"count":0,"lastCheckinExpiredAt":0,"marked":false,"unconfirmedCount":0},"hereNow":{"count":0,"summary":"Nobody here","groups":[]},"referralId":"v-1604765688","venueChains":[],"hasPerk":false},{"id":"517e7fbb498e4a3bdd07eceb","name":"Sokoksen Mediaseinä","contact":{},"location":{"lat":60.17084860666007,"lng":24.93719910085481,"labeledLatLngs":[{"label":"display","lat":60.17084860666007,"lng":24.93719910085481}],"distance":1180,"cc":"FI","country":"Suomi","formattedAddress":["Suomi"]},"categories":[{"id":"507c8c4091d498d9fc8c67a9","name":"Public Art","pluralName":"Public Art","shortName":"Public Art","icon":{"prefix":"https:\/\/ss3.4sqi.net\/img\/categories_v2\/arts_entertainment\/default_","suffix":".png"},"primary":true}],"verified":false,"stats":{"tipCount":0,"usersCount":0,"checkinsCount":0,"visitsCount":0},"beenHere":{"count":0,"lastCheckinExpiredAt":0,"marked":false,"unconfirmedCount":0},"hereNow":{"count":0,"summary":"Nobody here","groups":[]},"referralId":"v-1604765688","venueChains":[],"hasPerk":false},{"id":"4c7ccdcba141b1f7450a6c79","name":"Mannerheimin ratsastajapatsas","contact":{},"location":{"address":"Mannerheiminaukio","lat":60.17145044303877,"lng":24.936212687044122,"labeledLatLngs":[{"label":"display","lat":60.17145044303877,"lng":24.936212687044122}],"distance":1129,"postalCode":"00100","cc":"FI","city":"Helsinki","state":"Uusimaa","country":"Suomi","formattedAddress":["Mannerheiminaukio","00100 Helsinki","Suomi"]},"categories":[{"id":"52e81612bcbc57f1066b79ed","name":"Outdoor Sculpture","pluralName":"Outdoor Sculptures","shortName":"Outdoor Sculpture","icon":{"prefix":"https:\/\/ss3.4sqi.net\/img\/categories_v2\/parks_outdoors\/sculpture_","suffix":".png"},"primary":true}],"verified":false,"stats":{"tipCount":0,"usersCount":0,"checkinsCount":0,"visitsCount":0},"beenHere":{"count":0,"lastCheckinExpiredAt":0,"marked":false,"unconfirmedCount":0},"hereNow":{"count":0,"summary":"Nobody here","groups":[]},"referralId":"v-1604765688","venueChains":[],"hasPerk":false},{"id":"4e5ce329183883e00c0e10a2","name":"Paasikiven patsas","contact":{},"location":{"address":"Paasikivenaukio","lat":60.17085581350271,"lng":24.935773687153517,"labeledLatLngs":[{"label":"display","lat":60.17085581350271,"lng":24.935773687153517}],"distance":1101,"postalCode":"00100","cc":"FI","city":"Helsinki","state":"Uusimaa","country":"Suomi","formattedAddress":["Paasikivenaukio","00100 Helsinki","Suomi"]},"categories":[{"id":"4bf58dd8d48988d12d941735","name":"Monument \/ Landmark","pluralName":"Monuments \/ Landmarks","shortName":"Landmark","icon":{"prefix":"https:\/\/ss3.4sqi.net\/img\/categories_v2\/building\/government_monument_","suffix":".png"},"primary":true}],"verified":false,"stats":{"tipCount":0,"usersCount":0,"checkinsCount":0,"visitsCount":0},"beenHere":{"count":0,"lastCheckinExpiredAt":0,"marked":false,"unconfirmedCount":0},"hereNow":{"count":0,"summary":"Nobody here","groups":[]},"referralId":"v-1604765688","venueChains":[],"hasPerk":false},{"id":"5651be84498edc1813cfc34c","name":"Stockmannin jouluikkuna","contact":{},"location":{"address":"Aleksanterinkatu 52","lat":60.168195801972566,"lng":24.942867085097937,"labeledLatLngs":[{"label":"display","lat":60.168195801972566,"lng":24.942867085097937}],"distance":1520,"postalCode":"00100","cc":"FI","city":"Helsinki","state":"Uusimaa","country":"Suomi","formattedAddress":["Aleksanterinkatu 52","00100 Helsinki","Suomi"]},"categories":[{"id":"52e81612bcbc57f1066b79ee","name":"Street Art","pluralName":"Street Art Installations","shortName":"Street Art","icon":{"prefix":"https:\/\/ss3.4sqi.net\/img\/categories_v2\/arts_entertainment\/default_","suffix":".png"},"primary":true}],"verified":false,"stats":{"tipCount":0,"usersCount":0,"checkinsCount":0,"visitsCount":0},"beenHere":{"count":0,"lastCheckinExpiredAt":0,"marked":false,"unconfirmedCount":0},"hereNow":{"count":0,"summary":"Nobody here","groups":[]},"referralId":"v-1604765688","venueChains":[],"hasPerk":false},{"id":"4cc067aa9ca85481a436bc16","name":"Itsekkyyden muistomerkki","contact":{},"location":{"address":"Linnunlauluntie 9","lat":60.182236001883744,"lng":24.93708091767649,"labeledLatLngs":[{"label":"display","lat":60.182236001883744,"lng":24.93708091767649}],"distance":1739,"postalCode":"00530","cc":"FI","city":"Helsinki","state":"Uusimaa","country":"Suomi","formattedAddress":["Linnunlauluntie 9","00530 Helsinki","Suomi"]},"categories":[{"id":"52e81612bcbc57f1066b79ed","name":"Outdoor Sculpture","pluralName":"Outdoor Sculptures","shortName":"Outdoor Sculpture","icon":{"prefix":"https:\/\/ss3.4sqi.net\/img\/categories_v2\/parks_outdoors\/sculpture_","suffix":".png"},"primary":true}],"verified":false,"stats":{"tipCount":0,"usersCount":0,"checkinsCount":0,"visitsCount":0},"beenHere":{"count":0,"lastCheckinExpiredAt":0,"marked":false,"unconfirmedCount":0},"hereNow":{"count":0,"summary":"Nobody here","groups":[]},"referralId":"v-1604765688","venueChains":[],"hasPerk":false}],"confident":false}}