{"meta":{"code":200,"requestId":"5fa6c7ce6efe695f20545ed6"},"response":{"venues":[{"id":"4b0ab5d4f964a520b72623e3","name":"Töölön kisahalli","contact":{},"location":{"address":"Paavo Nurmen kuja 1 C","lat":60.18342977118588,"lng":24.925596714019775,"labeledLatLngs":[{"label":"display","lat":60.18342977118588,"lng":24.925596714019775}],"distance":1515,"postalCode":"00250","cc":"FI","city":"Helsinki","state":"Uusimaa","country":"Suomi","formattedAddress":["Paavo Nurmen kuja 1 C","00250 Helsinki","Suomi"]},"categories":[{"id":"52e81612bcbc57f1066b7a26","name":"Recreation Center","pluralName":"Recreation Centers","shortName":"Recreation Center","icon":{"prefix":"https:\/\/ss3.4sqi.net\/img\/categories_v2\/shops\/sports_outdoors_","suffix":".png"},"primary":true}],"verified":false,"stats":{"tipCount":0,"usersCount":0,"checkinsCount":0,"visitsCount":0},"beenHere":{"count":0,"lastCheckinExpiredAt":0,"marked":false,"unconfirmedCount":0},"hereNow":{"count":0,"summary":"Nobody here","groups":[]},"referralId":"v-1604765646","venueChains":[],"hasPerk":false},{"id":"4d43f8a54e5d37043abde593","name":"Olympiastadion","contact":{},"location":{"address":"Paavo Nurmen tie 1","lat":60.18695044776968,"lng":24.927163124084473,"labeledLatLngs":[{"label":"display","lat":60.18695044776968,"lng":24.927163124084473}],"distance":1913,"postalCode":"00250","cc":"FI","neighborhood":"Taka-Töölö","city":"Helsinki","state":"Uusimaa","country":"Suomi","formattedAddress":["Paavo Nurmen tie 1","00250 Helsinki","Suomi"]},"categories":[{"id":"4bf58dd8d48988d184941735","name":"Stadium","pluralName":"Stadiums","shortName":"Stadium","icon":{"prefix":"https:\/\/ss3.4sqi.net\/img\/categories_v2\/arts_entertainment\/stadium_","suffix":".png"},"primary":true}],"verified":false,"stats":{"tipCount":0,"usersCount":0,"checkinsCount":0,"visitsCount":0},"beenHere":{"count":0,"lastCheckinExpiredAt":0,"marked":false,"unconfirmedCount":0},"hereNow":{"count":0,"summary":"Nobody here","groups":[]},"referralId":"v-1604765646","venueChains":[],"hasPerk":false},{"id":"5f379c8293ea8442f788ba74","name":"billebeino padel factory","contact":{},"location":{"address":"Traverssikuja 3","lat":60.194218,"lng":24.946418,"labeledLatLngs":[{"label":"display","lat":60.194218,"lng":24.946418}],"distance":3116,"postalCode":"00510","cc":"FI","city":"Helsinki","state":"Uusimaa","country":"Suomi","formattedAddress":["Traverssikuja 3","00510 Helsinki","Suomi"]},"categories":[{"id":"4bf58dd8d48988d184941735","name":"Stadium","pluralName":"Stadiums","shortName":"Stadium","icon":{"prefix":"https:\/\/ss3.4sqi.net\/img\/categories_v2\/arts_entertainment\/stadium_","suffix":".png"},"primary":true}],"verified":false,"stats":{"tipCount":0,"usersCount":0,"checkinsCount":0,"visitsCount":0},"beenHere":{"count":0,"lastCheckinExpiredAt":0,"marked":false,"unconfirmedCount":0},"hereNow":{"count":0,"summary":"Nobody here","groups":[]},"referralId":"v-1604765646","venueChains":[],"hasPerk":false},{"id":"5198e8b4498e1c057444de04","name":"Sundsbergin Stadika","contact":{},"location":{"lat":60.15548822428908,"lng":24.54889290286229,"labeledLatLngs":[{"label":"display","lat":60.15548822428908,"lng":24.54889290286229}],"distance":20395,"cc":"FI","city":"Sundsberg","state":"Uusimaa","country":"Suomi","formattedAddress":["Sundsberg","Suomi"]},"categories":[{"id":"4bf58dd8d48988d184941735","name":"Stadium","pluralName":"Stadiums","shortName":"Stadium","icon":{"prefix":"https:\/\/ss3.4sqi.net\/img\/categories_v2\/arts_entertainment\/stadium_","suffix":".png"},"primary":true}],"verified":false,"stats":{"tipCount":0,"usersCount":0,"checkinsCount":0,"visitsCount":0},"beenHere":{"count":0,"lastCheckinExpiredAt":0,"marked":false,"unconfirmedCount":0},"hereNow":{"count":0,"summary":"Nobody here","groups":[]},"referralId":"v-1604765646","venueChains":[],"hasPerk":false},{"id":"4c108e63f1b6a593a4207c27","name":"Eläintarhan urheilukenttä","contact":{},"location":{"address":"Vauhtitie 6","lat":60.19066235999979,"lng":24.931628549315494,"labeledLatLngs":[{"label":"display","lat":60.19066235999979,"lng":24.931628549315494}],"distance":2387,"postalCode":"00250","cc":"FI","city":"Helsinki","state":"Uusimaa","country":"Suomi","formattedAddress":["Vauhtitie 6","00250 Helsinki","Suomi"]},"categories":[{"id":"4bf58dd8d48988d187941735","name":"Track Stadium","pluralName":"Track Stadiums","shortName":"Track","icon":{"prefix":"https:\/\/ss3.4sqi.net\/img\/categories_v2\/arts_entertainment\/stadium_track_","suffix":".png"},"primary":true}],"verified":false,"stats":{"tipCount":0,"usersCount":0,"checkinsCount":0,"visitsCount":0},"beenHere":{"count":0,"lastCheckinExpiredAt":0,"marked":false,"unconfirmedCount":0},"hereNow":{"count":0,"summary":"Nobody here","groups":[]},"referralId":"v-1604765646","venueChains":[],"hasPerk":false},{"id":"4c20d6c18082d13a1f45f82a","name":"Leppävaaran urheilupuisto","contact":{},"location":{"address":"Veräjäpellonkatu 17","lat":60.22515650173515,"lng":24.800587652154405,"labeledLatLngs":[{"label":"display","lat":60.22515650173515,"lng":24.800587652154405}],"distance":8799,"postalCode":"02650","cc":"FI","city":"Espoo","state":"Uusimaa","country":"Suomi","formattedAddress":["Veräjäpellonkatu 17","02650 Espoo","Suomi"]},"categories":[{"id":"52e81612bcbc57f1066b7a26","name":"Recreation Center","pluralName":"Recreation Centers","shortName":"Recreation Center","icon":{"prefix":"https:\/\/ss3.4sqi.net\/img\/categories_v2\/shops\/sports_outdoors_","suffix":".png"},"primary":true}],"verified":false,"stats":{"tipCount":0,"usersCount":0,"checkinsCount":0,"visitsCount":0},"beenHere":{"count":0,"lastCheckinExpiredAt":0,"marked":false,"unconfirmedCount":0},"hereNow":{"count":0,"summary":"Nobody here","groups":[]},"referralId":"v-1604765646","venueChains":[],"hasPerk":false},{"id":"4bd46e0129eb9c74108791e1","name":"Esport Arena","contact":{},"location":{"address":"Koivu-Mankkaan tie 5","lat":60.17676129579895,"lng":24.781214868833505,"labeledLatLngs":[{"label":"display","lat":60.17676129579895,"lng":24.781214868833505}],"distance":7486,"postalCode":"02200","cc":"FI","city":"Espoo","state":"Uusimaa","country":"Suomi","formattedAddress":["Koivu-Mankkaan tie 5","02200 Espoo","Suomi"]},"categories":[{"id":"4bf58dd8d48988d175941735","name":"Gym \/ Fitness Center","pluralName":"Gyms or Fitness Centers","shortName":"Gym \/ Fitness","icon":{"prefix":"https:\/\/ss3.4sqi.net\/img\/categories_v2\/building\/gym_","suffix":".png"},"primary":true}],"verified":false,"stats":{"tipCount":0,"usersCount":0,"checkinsCount":0,"visitsCount":0},"beenHere":{"count":0,"lastCheckinExpiredAt":0,"marked":false,"unconfirmedCount":0},"hereNow":{"count":0,"summary":"Nobody here","groups":[]},"referralId":"v-1604765646","venueChains":[],"hasPerk":false},{"id":"4b4edff9f964a520a4f626e3","name":"Meilahden liikuntakeskus","contact":{},"location":{"address":"Meilahden liikuntapuisto","lat":60.19000299566006,"lng":24.897142388783024,"labeledLatLngs":[{"label":"display","lat":60.19000299566006,"lng":24.897142388783024}],"distance":2386,"postalCode":"00250","cc":"FI","city":"Helsinki","state":"Uusimaa","country":"Suomi","formattedAddress":["Meilahden liikuntapuisto","00250 Helsinki","Suomi"]},"categories":[{"id":"4bf58dd8d48988d175941735","name":"Gym \/ Fitness Center","pluralName":"Gyms or Fitness Centers","shortName":"Gym \/ Fitness","icon":{"prefix":"https:\/\/ss3.4sqi.net\/img\/categories_v2\/building\/gym_","suffix":".png"},"primary":true}],"verified":false,"stats":{"tipCount":0,"usersCount":0,"checkinsCount":0,"visitsCount":0},"beenHere":{"count":0,"lastCheckinExpiredAt":0,"marked":false,"unconfirmedCount":0},"hereNow":{"count":0,"summary":"Nobody here","groups":[]},"referralId":"v-1604765646","venueChains":[],"hasPerk":false},{"id":"57474d5b498eef633f26efc6","name":"Aitio 226","contact":{},"location":{"address":"Bolt Arena","crossStreet":"Urheilukatu 5","lat":60.18751585458224,"lng":24.92176651954651,"labeledLatLngs":[{"label":"display","lat":60.18751585458224,"lng":24.92176651954651}],"distance":1900,"postalCode":"00250","cc":"FI","city":"Helsinki","state":"Uusimaa","country":"Suomi","formattedAddress":["Bolt Arena (Urheilukatu 5)","00250 Helsinki","Suomi"]},"categories":[{"id":"4bf58dd8d48988d188941735","name":"Soccer Stadium","pluralName":"Soccer Stadiums","shortName":"Soccer","icon":{"prefix":"https:\/\/ss3.4sqi.net\/img\/categories_v2\/arts_entertainment\/stadium_soccer_","suffix":".png"},"primary":true}],"verified":false,"stats":{"tipCount":0,"usersCount":0,"checkinsCount":0,"visitsCount":0},"beenHere":{"count":0,"lastCheckinExpiredAt":0,"marked":false,"unconfirmedCount":0},"hereNow":{"count":0,"summary":"Nobody here","groups":[]},"referralId":"v-1604765646","venueChains":[],"hasPerk":false},{"id":"4c7fdbdb51ada1cd58740410","name":"Pallomylly","contact":{},"location":{"address":"Pikajuoksijankuja 9","lat":60.21912893669884,"lng":25.07911741273825,"labeledLatLngs":[{"label":"display","lat":60.21912893669884,"lng":25.07911741273825}],"distance":10518,"postalCode":"00920","cc":"FI","city":"Helsinki","state":"Uusimaa","country":"Suomi","formattedAddress":["Pikajuoksijankuja 9","00920 Helsinki","Suomi"]},"categories":[{"id":"4bf58dd8d48988d188941735","name":"Soccer Stadium","pluralName":"Soccer Stadiums","shortName":"Soccer","icon":{"prefix":"https:\/\/ss3.4sqi.net\/img\/categories_v2\/arts_entertainment\/stadium_soccer_","suffix":".png"},"primary":true}],"verified":false,"stats":{"tipCount":0,"usersCount":0,"checkinsCount":0,"visitsCount":0},"beenHere":{"count":0,"lastCheckinExpiredAt":0,"marked":false,"unconfirmedCount":0},"hereNow":{"count":0,"summary":"Nobody here","groups":[]},"referralId":"v-1604765646","venueChains":[],"hasPerk":false},{"id":"4bd26faeb221c9b6a1d0d7d0","name":"Vuosaaren Urheilukenttä - Heteniityn Kenttä","contact":{},"location":{"address":"Heteniityntie 6","lat":60.21789177141562,"lng":25.13733499410463,"labeledLatLngs":[{"label":"display","lat":60.21789177141562,"lng":25.13733499410463}],"distance":13332,"postalCode":"00960","cc":"FI","city":"Helsinki","state":"Uusimaa","country":"Suomi","formattedAddress":["Heteniityntie 6","00960 Helsinki","Suomi"]},"categories":[{"id":"4bf58dd8d48988d188941735","name":"Soccer Stadium","pluralName":"Soccer Stadiums","shortName":"Soccer","icon":{"prefix":"https:\/\/ss3.4sqi.net\/img\/categories_v2\/arts_entertainment\/stadium_soccer_","suffix":".png"},"primary":true}],"verified":false,"stats":{"tipCount":0,"usersCount":0,"checkinsCount":0,"visitsCount":0},"beenHere":{"count":0,"lastCheckinExpiredAt":0,"marked":false,"unconfirmedCount":0},"hereNow":{"count":0,"summary":"Nobody here","groups":[]},"referralId":"v-1604765646","venueChains":[],"hasPerk":false},{"id":"510cd096e4b036b555514734","name":"Koivikon urheilukenttä","contact":{},"location":{"address":"Saviontie","lat":60.379192571088396,"lng":25.083057634164117,"labeledLatLngs":[{"label":"display","lat":60.379192571088396,"lng":25.083057634164117}],"distance":24976,"cc":"FI","city":"Kerava","state":"Uusimaa","country":"Suomi","formattedAddress":["Saviontie","Kerava","Suomi"]},"categories":[{"id":"4bf58dd8d48988d184941735","name":"Stadium","pluralName":"Stadiums","shortName":"Stadium","icon":{"prefix":"https:\/\/ss3.4sqi.net\/img\/categories_v2\/arts_entertainment\/stadium_","suffix":".png"},"primary":true}],"verified":false,"stats":{"tipCount":0,"usersCount":0,"checkinsCount":0,"visitsCount":0},"beenHere":{"count":0,"lastCheckinExpiredAt":0,"marked":false,"unconfirmedCount":0},"hereNow":{"count":0,"summary":"Nobody here","groups":[]},"referralId":"v-1604765646","venueChains":[],"hasPerk":false},{"id":"4adcdb27f964a520f56121e3","name":"Bolt Arena","contact":{},"location":{"address":"Urheilukatu 5","lat":60.18762253402097,"lng":24.922614097595215,"labeledLatLngs":[{"label":"display","lat":60.18762253402097,"lng":24.922614097595215}],"distance":1920,"postalCode":"00250","cc":"FI","city":"Helsinki","state":"Uusimaa","country":"Suomi","formattedAddress":["Urheilukatu 5","00250 Helsinki","Suomi"]},"categories":[{"id":"4bf58dd8d48988d188941735","name":"Soccer Stadium","pluralName":"Soccer Stadiums","shortName":"Soccer","icon":{"prefix":"https:\/\/ss3.4sqi.net\/img\/categories_v2\/arts_entertainment\/stadium_soccer_","suffix":".png"},"primary":true}],"verified":true,"stats":{"tipCount":0,"usersCount":0,"checkinsCount":0,"visitsCount":0},"beenHere":{"count":0,"lastCheckinExpiredAt":0,"marked":false,"unconfirmedCount":0},"venuePage":{"id":"33679906"},"hereNow":{"count":0,"summary":"Nobody here","groups":[]},"referralId":"v-1604765646","venueChains":[],"hasPerk":false},{"id":"4b64499bf964a52085a82ae3","name":"Espoo Metro Areena","contact":{},"location":{"address":"Urheilupuistontie 3","lat":60.17813451158094,"lng":24.786151222450897,"labeledLatLngs":[{"label":"display","lat":60.17813451158094,"lng":24.786151222450897}],"distance":7229,"postalCode":"02200","cc":"FI","city":"Espoo","state":"Uusimaa","country":"Suomi","formattedAddress":["Urheilupuistontie 3","02200 Espoo","Suomi"]},"categories":[{"id":"4bf58dd8d48988d185941735","name":"Hockey Arena","pluralName":"Hockey Arenas","shortName":"Hockey","icon":{"prefix":"https:\/\/ss3.4sqi.net\/img\/categories_v2\/arts_entertainment\/stadium_hockey_","suffix":".png"},"primary":true}],"verified":false,"stats":{"tipCount":0,"usersCount":0,"checkinsCount":0,"visitsCount":0},"beenHere":{"count":0,"lastCheckinExpiredAt":0,"marked":false,"unconfirmedCount":0},"hereNow":{"count":0,"summary":"Nobody here","groups":[]},"referralId":"v-1604765646","venueChains":[],"hasPerk":false},{"id":"4b6d4a3af964a5207d6f2ce3","name":"Energia Areena","contact":{},"location":{"address":"Rajatorpantie 23","lat":60.259903374341356,"lng":24.838542938232422,"labeledLatLngs":[{"label":"display","lat":60.259903374341356,"lng":24.838542938232422}],"distance":10811,"postalCode":"01600","cc":"FI","neighborhood":"Myyrmäki","city":"Vantaa","state":"Uusimaa","country":"Suomi","formattedAddress":["Rajatorpantie 23","01600 Vantaa","Suomi"]},"categories":[{"id":"4bf58dd8d48988d18b941735","name":"Basketball Stadium","pluralName":"Basketball Stadiums","shortName":"Basketball","icon":{"prefix":"https:\/\/ss3.4sqi.net\/img\/categories_v2\/arts_entertainment\/stadium_basketball_","suffix":".png"},"primary":true}],"verified":false,"stats":{"tipCount":0,"usersCount":0,"checkinsCount":0,"visitsCount":0},"beenHere":{"count":0,"lastCheckinExpiredAt":0,"marked":false,"unconfirmedCount":0},"hereNow":{"count":0,"summary":"Nobody here","groups":[]},"referralId":"v-1604765646","venueChains":[],"hasPerk":false},{"id":"4bc9c6ae937ca5935044a692","name":"Myyrmäen jalkapallostadion","contact":{},"location":{"address":"Raappavuorentie 6","lat":60.261865505120156,"lng":24.837786206509982,"labeledLatLngs":[{"label":"display","lat":60.261865505120156,"lng":24.837786206509982}],"distance":11029,"postalCode":"01650","cc":"FI","city":"Vantaa","state":"Uusimaa","country":"Suomi","formattedAddress":["Raappavuorentie 6","01650 Vantaa","Suomi"]},"categories":[{"id":"4bf58dd8d48988d188941735","name":"Soccer Stadium","pluralName":"Soccer Stadiums","shortName":"Soccer","icon":{"prefix":"https:\/\/ss3.4sqi.net\/img\/categories_v2\/arts_entertainment\/stadium_soccer_","suffix":".png"},"primary":true}],"verified":false,"stats":{"tipCount":0,"usersCount":0,"checkinsCount":0,"visitsCount":0},"beenHere":{"count":0,"lastCheckinExpiredAt":0,"marked":false,"unconfirmedCount":0},"hereNow":{"count":0,"summary":"Nobody here","groups":[]},"referralId":"v-1604765646","venueChains":[],"hasPerk":false},{"id":"4b52b05ef964a520068627e3","name":"Matinkylän jäähalli","contact":{},"location":{"address":"Matinkartanontie 9-11","lat":60.15949176359863,"lng":24.751382885611857,"labeledLatLngs":[{"label":"display","lat":60.15949176359863,"lng":24.751382885611857}],"distance":9194,"postalCode":"02230","cc":"FI","city":"Espoo","state":"Uusimaa","country":"Suomi","formattedAddress":["Matinkartanontie 9-11","02230 Espoo","Suomi"]},"categories":[{"id":"4bf58dd8d48988d185941735","name":"Hockey Arena","pluralName":"Hockey Arenas","shortName":"Hockey","icon":{"prefix":"https:\/\/ss3.4sqi.net\/img\/categories_v2\/arts_entertainment\/stadium_hockey_","suffix":".png"},"primary":true}],"verified":false,"stats":{"tipCount":0,"usersCount":0,"checkinsCount":0,"visitsCount":0},"beenHere":{"count":0,"lastCheckinExpiredAt":0,"marked":false,"unconfirmedCount":0},"hereNow":{"count":0,"summary":"Nobody here","groups":[]},"referralId":"v-1604765646","venueChains":[],"hasPerk":false},{"id":"4d7b3d9979c4b1f74092e4f2","name":"Espoonlahden harjoitushalli","contact":{},"location":{"address":"Espoonlahdentie 2-4","lat":60.147887153460175,"lng":24.662482738494873,"labeledLatLngs":[{"label":"display","lat":60.147887153460175,"lng":24.662482738494873}],"distance":14263,"postalCode":"02320","cc":"FI","city":"Espoo","state":"Uusimaa","country":"Suomi","formattedAddress":["Espoonlahdentie 2-4","02320 Espoo","Suomi"]},"categories":[{"id":"56aa371be4b08b9a8d57352c","name":"Hockey Rink","pluralName":"Hockey Rinks","shortName":"Hockey Rink","icon":{"prefix":"https:\/\/ss3.4sqi.net\/img\/categories_v2\/arts_entertainment\/stadium_hockey_","suffix":".png"},"primary":true}],"verified":false,"stats":{"tipCount":0,"usersCount":0,"checkinsCount":0,"visitsCount":0},"beenHere":{"count":0,"lastCheckinExpiredAt":0,"marked":false,"unconfirmedCount":0},"hereNow":{"count":0,"summary":"Nobody here","groups":[]},"referralId":"v-1604765646","venueChains":[],"hasPerk":false},{"id":"4d04af5c54d0236a368ff0d5","name":"Keravan jäähalli","contact":{},"location":{"address":"Metsolantie 3","lat":60.409550778210445,"lng":25.09287025249494,"labeledLatLngs":[{"label":"display","lat":60.409550778210445,"lng":25.09287025249494}],"distance":28325,"postalCode":"04200","cc":"FI","city":"Kerava","state":"Uusimaa","country":"Suomi","formattedAddress":["Metsolantie 3","04200 Kerava","Suomi"]},"categories":[{"id":"4bf58dd8d48988d185941735","name":"Hockey Arena","pluralName":"Hockey Arenas","shortName":"Hockey","icon":{"prefix":"https:\/\/ss3.4sqi.net\/img\/categories_v2\/arts_entertainment\/stadium_hockey_","suffix":".png"},"primary":true}],"verified":false,"stats":{"tipCount":0,"usersCount":0,"checkinsCount":0,"visitsCount":0},"beenHere":{"count":0,"lastCheckinExpiredAt":0,"marked":false,"unconfirmedCount":0},"hereNow":{"count":0,"summary":"Nobody here","groups":[]},"referralId":"v-1604765646","venueChains":[],"hasPerk":false},{"id":"4adcdb22f964a5207e6021e3","name":"Hartwall Arena","contact":{},"location":{"address":"Areenankuja 1","lat":60.205682720571915,"lng":24.929210036845383,"labeledLatLngs":[{"label":"display","lat":60.205682720571915,"lng":24.929210036845383}],"distance":3963,"postalCode":"00240","cc":"FI","neighborhood":"Pasila","city":"Helsinki","state":"Uusimaa","country":"Suomi","formattedAddress":["Areenankuja 1","00240 Helsinki","Suomi"]},"categories":[{"id":"4bf58dd8d48988d185941735","name":"Hockey Arena","pluralName":"Hockey Arenas","shortName":"Hockey","icon":{"prefix":"https:\/\/ss3.4sqi.net\/img\/categories_v2\/arts_entertainment\/stadium_hockey_","suffix":".png"},"primary":true}],"verified":false,"stats":{"tipCount":0,"usersCount":0,"checkinsCount":0,"visitsCount":0},"beenHere":{"count":0,"lastCheckinExpiredAt":0,"marked":false,"unconfirmedCount":0},"hereNow":{"count":0,"summary":"Nobody here","groups":[]},"referralId":"v-1604765646","venueChains":[],"hasPerk":false},{"id":"4cbc4545985db7138d704c19","name":"Leppävaaran jäähalli - Warrior Areena","contact":{},"location":{"address":"Maantienpelto 1","lat":60.22400312015451,"lng":24.806182313867076,"labeledLatLngs":[{"label":"display","lat":60.22400312015451,"lng":24.806182313867076}],"distance":8487,"postalCode":"02650","cc":"FI","city":"Espoo","state":"Uusimaa","country":"Suomi","formattedAddress":["Maantienpelto 1","02650 Espoo","Suomi"]},"categories":[{"id":"4bf58dd8d48988d185941735","name":"Hockey Arena","pluralName":"Hockey Arenas","shortName":"Hockey","icon":{"prefix":"https:\/\/ss3.4sqi.net\/img\/categories_v2\/arts_entertainment\/stadium_hockey_","suffix":".png"},"primary":true}],"verified":false,"stats":{"tipCount":0,"usersCount":0,"checkinsCount":0,"visitsCount":0},"beenHere":{"count":0,"lastCheckinExpiredAt":0,"marked":false,"unconfirmedCount":0},"hereNow":{"count":0,"summary":"Nobody here","groups":[]},"referralId":"v-1604765646","venueChains":[],"hasPerk":false},{"id":"4adcdb26f964a5206f6121e3","name":"Helsingin jäähalli \/ Helsingfors ishall (Helsingin jäähalli)","contact":{},"location":{"address":"Nordenskiöldinkatu 11-13","lat":60.18926001990633,"lng":24.9223780632019,"labeledLatLngs":[{"label":"display","lat":60.18926001990633,"lng":24.9223780632019}],"distance":2097,"postalCode":"00250","cc":"FI","city":"Helsinki","state":"Uusimaa","country":"Suomi","formattedAddress":["Nordenskiöldinkatu 11-13","00250 Helsinki","Suomi"]},"categories":[{"id":"4bf58dd8d48988d185941735","name":"Hockey Arena","pluralName":"Hockey Arenas","shortName":"Hockey","icon":{"prefix":"https:\/\/ss3.4sqi.net\/img\/categories_v2\/arts_entertainment\/stadium_hockey_","suffix":".png"},"primary":true}],"verified":false,"stats":{"tipCount":0,"usersCount":0,"checkinsCount":0,"visitsCount":0},"beenHere":{"count":0,"lastCheckinExpiredAt":0,"marked":false,"unconfirmedCount":0},"hereNow":{"count":0,"summary":"Nobody here","groups":[]},"referralId":"v-1604765646","venueChains":[],"hasPerk":false},{"id":"50573302e4b03ac2641f953b","name":"Esport Center Tennis","contact":{},"location":{"address":"Koivu-Mankkaan tie 3","lat":60.17553358828464,"lng":24.780900729376896,"labeledLatLngs":[{"label":"display","lat":60.17553358828464,"lng":24.780900729376896}],"distance":7492,"postalCode":"02200","cc":"FI","city":"Espoo","state":"Uusimaa","country":"Suomi","formattedAddress":["Koivu-Mankkaan tie 3","02200 Espoo","Suomi"]},"categories":[{"id":"4e39a891bd410d7aed40cbc2","name":"Tennis Stadium","pluralName":"Tennis Stadiums","shortName":"Tennis","icon":{"prefix":"https:\/\/ss3.4sqi.net\/img\/categories_v2\/arts_entertainment\/stadium_tennis_","suffix":".png"},"primary":true}],"verified":false,"stats":{"tipCount":0,"usersCount":0,"checkinsCount":0,"visitsCount":0},"beenHere":{"count":0,"lastCheckinExpiredAt":0,"marked":false,"unconfirmedCount":0},"hereNow":{"count":0,"summary":"Nobody here","groups":[]},"referralId":"v-1604765646","venueChains":[],"hasPerk":false},{"id":"4b5c914df964a520043729e3","name":"Hernesaaren jäähalli Jääherne","contact":{},"location":{"address":"Hernematalankatu 6","lat":60.14919665366041,"lng":24.92131449858004,"labeledLatLngs":[{"label":"display","lat":60.14919665366041,"lng":24.92131449858004}],"distance":2412,"postalCode":"00150","cc":"FI","city":"Helsinki","state":"Uusimaa","country":"Suomi","formattedAddress":["Hernematalankatu 6","00150 Helsinki","Suomi"]},"categories":[{"id":"4bf58dd8d48988d185941735","name":"Hockey Arena","pluralName":"Hockey Arenas","shortName":"Hockey","icon":{"prefix":"https:\/\/ss3.4sqi.net\/img\/categories_v2\/arts_entertainment\/stadium_hockey_","suffix":".png"},"primary":true}],"verified":false,"stats":{"tipCount":0,"usersCount":0,"checkinsCount":0,"visitsCount":0},"beenHere":{"count":0,"lastCheckinExpiredAt":0,"marked":false,"unconfirmedCount":0},"hereNow":{"count":0,"summary":"Nobody here","groups":[]},"referralId":"v-1604765646","venueChains":[],"hasPerk":false},{"id":"4becfc286e8c20a148cf6f61","name":"Helsingin Velodromi","contact":{},"location":{"address":"Mäkelänkatu 70","lat":60.202398316794465,"lng":24.942346760338943,"labeledLatLngs":[{"label":"display","lat":60.202398316794465,"lng":24.942346760338943}],"distance":3820,"postalCode":"00520","cc":"FI","city":"Helsinki","country":"Suomi","formattedAddress":["Mäkelänkatu 70","00520 Helsinki","Suomi"]},"categories":[{"id":"4bf58dd8d48988d189941735","name":"Football Stadium","pluralName":"Football Stadiums","shortName":"Football","icon":{"prefix":"https:\/\/ss3.4sqi.net\/img\/categories_v2\/arts_entertainment\/stadium_football_","suffix":".png"},"primary":true}],"verified":false,"stats":{"tipCount":0,"usersCount":0,"checkinsCount":0,"visitsCount":0},"beenHere":{"count":0,"lastCheckinExpiredAt":0,"marked":false,"unconfirmedCount":0},"hereNow":{"count":0,"summary":"Nobody here","groups":[]},"referralId":"v-1604765646","venueChains":[],"hasPerk":false},{"id":"4befab72d4f70f47001c390f","name":"Myyrmäki-halli","contact":{},"location":{"address":"Raappavuorentie 8","lat":60.26154019980162,"lng":24.841544774760536,"labeledLatLngs":[{"label":"display","lat":60.26154019980162,"lng":24.841544774760536}],"distance":10915,"postalCode":"01600","cc":"FI","city":"Vantaa","state":"Uusimaa","country":"Suomi","formattedAddress":["Raappavuorentie 8","01600 Vantaa","Suomi"]},"categories":[{"id":"4cce455aebf7b749d5e191f5","name":"Soccer Field","pluralName":"Soccer Fields","shortName":"Soccer Field","icon":{"prefix":"https:\/\/ss3.4sqi.net\/img\/categories_v2\/arts_entertainment\/stadium_soccer_","suffix":".png"},"primary":true}],"verified":false,"stats":{"tipCount":0,"usersCount":0,"checkinsCount":0,"visitsCount":0},"beenHere":{"count":0,"lastCheckinExpiredAt":0,"marked":false,"unconfirmedCount":0},"hereNow":{"count":0,"summary":"Nobody here","groups":[]},"referralId":"v-1604765646","venueChains":[],"hasPerk":false},{"id":"4be552cecf200f474d0e133c","name":"Trio Areena","contact":{},"location":{"address":"Läntinen Valkoisenlähteentie 52-54","lat":60.29981110307851,"lng":25.02787356142156,"labeledLatLngs":[{"label":"display","lat":60.29981110307851,"lng":25.02787356142156}],"distance":15648,"postalCode":"01300","cc":"FI","city":"Vantaa","state":"Uusimaa","country":"Suomi","formattedAddress":["Läntinen Valkoisenlähteentie 52-54","01300 Vantaa","Suomi"]},"categories":[{"id":"4bf58dd8d48988d185941735","name":"Hockey Arena","pluralName":"Hockey Arenas","shortName":"Hockey","icon":{"prefix":"https:\/\/ss3.4sqi.net\/img\/categories_v2\/arts_entertainment\/stadium_hockey_","suffix":".png"},"primary":true}],"verified":false,"stats":{"tipCount":0,"usersCount":0,"checkinsCount":0,"visitsCount":0},"beenHere":{"count":0,"lastCheckinExpiredAt":0,"marked":false,"unconfirmedCount":0},"hereNow":{"count":0,"summary":"Nobody here","groups":[]},"referralId":"v-1604765646","venueChains":[],"hasPerk":false},{"id":"4bae2f3af964a520208f3be3","name":"Kalevan urheilupuisto","contact":{},"location":{"address":"Metsolantie 3","lat":60.409665915797575,"lng":25.09138428571284,"labeledLatLngs":[{"label":"display","lat":60.409665915797575,"lng":25.09138428571284}],"distance":28308,"postalCode":"04230","cc":"FI","city":"Kerava","state":"Uusimaa","country":"Suomi","formattedAddress":["Metsolantie 3","04230 Kerava","Suomi"]},"categories":[{"id":"4cce455aebf7b749d5e191f5","name":"Soccer Field","pluralName":"Soccer Fields","shortName":"Soccer Field","icon":{"prefix":"https:\/\/ss3.4sqi.net\/img\/categories_v2\/arts_entertainment\/stadium_soccer_","suffix":".png"},"primary":true}],"verified":false,"stats":{"tipCount":0,"usersCount":0,"checkinsCount":0,"visitsCount":0},"beenHere":{"count":0,"lastCheckinExpiredAt":0,"marked":false,"unconfirmedCount":0},"hereNow":{"count":0,"summary":"Nobody here","groups":[]},"referralId":"v-1604765646","venueChains":[],"hasPerk":false},{"id":"4dc508a1fa76d685cdd5e775","name":"Töölön Pallokenttä","contact":{},"location":{"address":"Töölön Pallokenttä","crossStreet":"Urheilukatu","lat":60.18629968447946,"lng":24.92420196533203,"labeledLatLngs":[{"label":"display","lat":60.18629968447946,"lng":24.92420196533203}],"distance":1796,"cc":"FI","city":"Helsinki","state":"Uusimaa","country":"Suomi","formattedAddress":["Töölön Pallokenttä (Urheilukatu)","Helsinki","Suomi"]},"categories":[{"id":"4bf58dd8d48988d188941735","name":"Soccer Stadium","pluralName":"Soccer Stadiums","shortName":"Soccer","icon":{"prefix":"https:\/\/ss3.4sqi.net\/img\/categories_v2\/arts_entertainment\/stadium_soccer_","suffix":".png"},"primary":true}],"verified":false,"stats":{"tipCount":0,"usersCount":0,"checkinsCount":0,"visitsCount":0},"beenHere":{"count":0,"lastCheckinExpiredAt":0,"marked":false,"unconfirmedCount":0},"hereNow":{"count":0,"summary":"Nobody here","groups":[]},"referralId":"v-1604765646","venueChains":[],"hasPerk":false},{"id":"4c060efd7083952183207bce","name":"Poolokenttä","contact":{},"location":{"address":"Laivapojankatu","lat":60.159511188069885,"lng":24.914417266845703,"labeledLatLngs":[{"label":"display","lat":60.159511188069885,"lng":24.914417266845703}],"distance":1247,"cc":"FI","city":"Helsinki","state":"00180","country":"Suomi","formattedAddress":["Laivapojankatu","Helsinki","Suomi"]},"categories":[{"id":"4bf58dd8d48988d184941735","name":"Stadium","pluralName":"Stadiums","shortName":"Stadium","icon":{"prefix":"https:\/\/ss3.4sqi.net\/img\/categories_v2\/arts_entertainment\/stadium_","suffix":".png"},"primary":true}],"verified":false,"stats":{"tipCount":0,"usersCount":0,"checkinsCount":0,"visitsCount":0},"beenHere":{"count":0,"lastCheckinExpiredAt":0,"marked":false,"unconfirmedCount":0},"hereNow":{"count":0,"summary":"Nobody here","groups":[]},"referralId":"v-1604765646","venueChains":[],"hasPerk":false}],"confident":false}}