{"meta":{"code":200,"requestId":"5fa6c777b1220d04fdcdb778"},"response":{"venues":[{"id":"5b7ad64a531593002c963fea","name":"Sali 12","contact":{},"location":{"address":"Finnkino Tennispalatsi","crossStreet":"Salomonkatu 15","lat":60.169773,"lng":24.930303,"labeledLatLngs":[{"label":"display","lat":60.169773,"lng":24.930303}],"distance":805,"postalCode":"00100","cc":"FI","city":"Helsinki","state":"Uusimaa","country":"Suomi","formattedAddress":["Finnkino Tennispalatsi (Salomonkatu 15)","00100 Helsinki","Suomi"]},"categories":[{"id":"4bf58dd8d48988d17f941735","name":"Movie Theater","pluralName":"Movie Theaters","shortName":"Movie Theater","icon":{"prefix":"https:\/\/ss3.4sqi.net\/img\/categories_v2\/arts_entertainment\/movietheater_","suffix":".png"},"primary":true}],"verified":false,"stats":{"tipCount":0,"usersCount":0,"checkinsCount":0,"visitsCount":0},"beenHere":{"count":0,"lastCheckinExpiredAt":0,"marked":false,"unconfirmedCount":0},"hereNow":{"count":0,"summary":"Nobody here","groups":[]},"referralId":"v-1604765560","venueChains":[],"hasPerk":false},{"id":"4af5e40ff964a52061fe21e3","name":"Finnkino Tennispalatsi","contact":{},"location":{"address":"Salomonkatu 15","crossStreet":"Tennispalatsi","lat":60.16948371895706,"lng":24.931025368448324,"distance":849,"postalCode":"00100","cc":"FI","city":"Helsinki","state":"Southern Finland","country":"Suomi","formattedAddress":["Salomonkatu 15 (Tennispalatsi)","00100 Helsinki","Suomi"]},"categories":[{"id":"4bf58dd8d48988d180941735","name":"Multiplex","pluralName":"Multiplexes","shortName":"Cineplex","icon":{"prefix":"https:\/\/ss3.4sqi.net\/img\/categories_v2\/arts_entertainment\/movietheater_","suffix":".png"},"primary":true}],"verified":false,"stats":{"tipCount":0,"usersCount":0,"checkinsCount":0,"visitsCount":0},"beenHere":{"count":0,"lastCheckinExpiredAt":0,"marked":false,"unconfirmedCount":0},"hereNow":{"count":0,"summary":"Nobody here","groups":[]},"referralId":"v-1604765560","venueChains":[],"hasPerk":false},{"id":"56718e91498e08291d65c9a4","name":"Riviera","contact":{},"location":{"address":"Harjukatu 2","lat":60.187863,"lng":24.9577,"labeledLatLngs":[{"label":"display","lat":60.187863,"lng":24.9577}],"distance":3001,"postalCode":"00500","cc":"FI","city":"Helsinki","state":"Uusimaa","country":"Suomi","formattedAddress":["Harjukatu 2","00500 Helsinki","Suomi"]},"categories":[{"id":"4bf58dd8d48988d17e941735","name":"Indie Movie Theater","pluralName":"Indie Movie Theaters","shortName":"Indie Movies","icon":{"prefix":"https:\/\/ss3.4sqi.net\/img\/categories_v2\/arts_entertainment\/movietheater_","suffix":".png"},"primary":true}],"verified":false,"stats":{"tipCount":0,"usersCount":0,"checkinsCount":0,"visitsCount":0},"beenHere":{"count":0,"lastCheckinExpiredAt":0,"marked":false,"unconfirmedCount":0},"hereNow":{"count":0,"summary":"Nobody here","groups":[]},"referralId":"v-1604765560","venueChains":[],"hasPerk":false},{"id":"5c728f93b3c961002cf51007","name":"ISENSE","contact":{},"location":{"address":"Finnkino Tennispalatsi","lat":60.1694980599477,"lng":24.930671453475952,"labeledLatLngs":[{"label":"display","lat":60.1694980599477,"lng":24.930671453475952}],"distance":830,"postalCode":"00100","cc":"FI","city":"Helsinki","state":"Southern Finland","country":"Suomi","formattedAddress":["Finnkino Tennispalatsi","00100 Helsinki","Suomi"]},"categories":[{"id":"4bf58dd8d48988d17f941735","name":"Movie Theater","pluralName":"Movie Theaters","shortName":"Movie Theater","icon":{"prefix":"https:\/\/ss3.4sqi.net\/img\/categories_v2\/arts_entertainment\/movietheater_","suffix":".png"},"primary":true}],"verified":false,"stats":{"tipCount":0,"usersCount":0,"checkinsCount":0,"visitsCount":0},"beenHere":{"count":0,"lastCheckinExpiredAt":0,"marked":false,"unconfirmedCount":0},"hereNow":{"count":0,"summary":"Nobody here","groups":[]},"referralId":"v-1604765560","venueChains":[],"hasPerk":false},{"id":"5dab31a628f17a0008e0a4c9","name":"Cinamon","contact":{},"location":{"address":"Mall of Tripla, 5. krs","crossStreet":"Fredikanterassi 1","lat":60.198451,"lng":24.930814,"labeledLatLngs":[{"label":"display","lat":60.198451,"lng":24.930814}],"distance":3198,"postalCode":"00520","cc":"FI","neighborhood":"Pasila","city":"Helsinki","state":"Uusimaa","country":"Suomi","formattedAddress":["Mall of Tripla, 5. krs (Fredikanterassi 1)","00520 Helsinki","Suomi"]},"categories":[{"id":"4bf58dd8d48988d180941735","name":"Multiplex","pluralName":"Multiplexes","shortName":"Cineplex","icon":{"prefix":"https:\/\/ss3.4sqi.net\/img\/categories_v2\/arts_entertainment\/movietheater_","suffix":".png"},"primary":true}],"verified":false,"stats":{"tipCount":0,"usersCount":0,"checkinsCount":0,"visitsCount":0},"beenHere":{"count":0,"lastCheckinExpiredAt":0,"marked":false,"unconfirmedCount":0},"hereNow":{"count":0,"summary":"Nobody here","groups":[]},"referralId":"v-1604765560","venueChains":[],"hasPerk":false},{"id":"5bbef7ca8194fc002bbd1260","name":"Kino Regina","contact":{},"location":{"address":"Keskustakirjasto Oodi, 1. krs","crossStreet":"Töölönlahdenkatu 4","lat":60.173868696626535,"lng":24.93791341781616,"labeledLatLngs":[{"label":"display","lat":60.173868696626535,"lng":24.93791341781616}],"distance":1270,"postalCode":"00100","cc":"FI","neighborhood":"Kluuvi","city":"Helsinki","state":"Uusimaa","country":"Suomi","formattedAddress":["Keskustakirjasto Oodi, 1. krs (Töölönlahdenkatu 4)","00100 Helsinki","Suomi"]},"categories":[{"id":"4bf58dd8d48988d17e941735","name":"Indie Movie Theater","pluralName":"Indie Movie Theaters","shortName":"Indie Movies","icon":{"prefix":"https:\/\/ss3.4sqi.net\/img\/categories_v2\/arts_entertainment\/movietheater_","suffix":".png"},"primary":true}],"verified":false,"stats":{"tipCount":0,"usersCount":0,"checkinsCount":0,"visitsCount":0},"beenHere":{"count":0,"lastCheckinExpiredAt":0,"marked":false,"unconfirmedCount":0},"hereNow":{"count":0,"summary":"Nobody here","groups":[]},"referralId":"v-1604765560","venueChains":[],"hasPerk":false},{"id":"4eb43cd78b81a81f9006301e","name":"Finnkino Sello","contact":{},"location":{"address":"Sello","lat":60.217990749707596,"lng":24.808743925561398,"labeledLatLngs":[{"label":"display","lat":60.217990749707596,"lng":24.808743925561398}],"distance":7928,"postalCode":"02600","cc":"FI","neighborhood":"Leppävaara","city":"Espoo","state":"Uusimaa","country":"Suomi","formattedAddress":["Sello","02600 Espoo","Suomi"]},"categories":[{"id":"4bf58dd8d48988d180941735","name":"Multiplex","pluralName":"Multiplexes","shortName":"Cineplex","icon":{"prefix":"https:\/\/ss3.4sqi.net\/img\/categories_v2\/arts_entertainment\/movietheater_","suffix":".png"},"primary":true}],"verified":false,"stats":{"tipCount":0,"usersCount":0,"checkinsCount":0,"visitsCount":0},"beenHere":{"count":0,"lastCheckinExpiredAt":0,"marked":false,"unconfirmedCount":0},"hereNow":{"count":0,"summary":"Nobody here","groups":[]},"referralId":"v-1604765560","venueChains":[],"hasPerk":false},{"id":"5bb0cbed6dcf04002c0e8f45","name":"Cinamon","contact":{},"location":{"address":"Kauppakeskus Redi","crossStreet":"Hermannin rantatie 5","lat":60.18678923241881,"lng":24.97857354098441,"labeledLatLngs":[{"label":"display","lat":60.18678923241881,"lng":24.97857354098441}],"distance":3905,"postalCode":"00540","cc":"FI","city":"Helsinki","state":"Uusimaa","country":"Suomi","formattedAddress":["Kauppakeskus Redi (Hermannin rantatie 5)","00540 Helsinki","Suomi"]},"categories":[{"id":"4bf58dd8d48988d180941735","name":"Multiplex","pluralName":"Multiplexes","shortName":"Cineplex","icon":{"prefix":"https:\/\/ss3.4sqi.net\/img\/categories_v2\/arts_entertainment\/movietheater_","suffix":".png"},"primary":true}],"verified":false,"stats":{"tipCount":0,"usersCount":0,"checkinsCount":0,"visitsCount":0},"beenHere":{"count":0,"lastCheckinExpiredAt":0,"marked":false,"unconfirmedCount":0},"hereNow":{"count":0,"summary":"Nobody here","groups":[]},"referralId":"v-1604765560","venueChains":[],"hasPerk":false},{"id":"4b3ba2bdf964a520997725e3","name":"Finnkino Flamingo","contact":{},"location":{"address":"Viihdekeskus Flamingo","crossStreet":"Tasetie 8","lat":60.2907703628076,"lng":24.96870230071585,"labeledLatLngs":[{"label":"display","lat":60.2907703628076,"lng":24.96870230071585}],"distance":13681,"postalCode":"01510","cc":"FI","neighborhood":"Pakkala","city":"Vantaa","state":"Uusimaa","country":"Suomi","formattedAddress":["Viihdekeskus Flamingo (Tasetie 8)","01510 Vantaa","Suomi"]},"categories":[{"id":"4bf58dd8d48988d180941735","name":"Multiplex","pluralName":"Multiplexes","shortName":"Cineplex","icon":{"prefix":"https:\/\/ss3.4sqi.net\/img\/categories_v2\/arts_entertainment\/movietheater_","suffix":".png"},"primary":true}],"verified":false,"stats":{"tipCount":0,"usersCount":0,"checkinsCount":0,"visitsCount":0},"beenHere":{"count":0,"lastCheckinExpiredAt":0,"marked":false,"unconfirmedCount":0},"hereNow":{"count":0,"summary":"Nobody here","groups":[]},"referralId":"v-1604765560","venueChains":[],"hasPerk":false},{"id":"5bfec9d43e6741002c8bfd96","name":"Finnkino Itis","contact":{},"location":{"address":"Kauppakeskus Itis","crossStreet":"Itäkatu 1-7","lat":60.21161457404127,"lng":25.083385680693585,"labeledLatLngs":[{"label":"display","lat":60.21161457404127,"lng":25.083385680693585}],"distance":10328,"postalCode":"00930","cc":"FI","city":"Helsinki","state":"Uusimaa","country":"Suomi","formattedAddress":["Kauppakeskus Itis (Itäkatu 1-7)","00930 Helsinki","Suomi"]},"categories":[{"id":"4bf58dd8d48988d180941735","name":"Multiplex","pluralName":"Multiplexes","shortName":"Cineplex","icon":{"prefix":"https:\/\/ss3.4sqi.net\/img\/categories_v2\/arts_entertainment\/movietheater_","suffix":".png"},"primary":true}],"verified":false,"stats":{"tipCount":0,"usersCount":0,"checkinsCount":0,"visitsCount":0},"beenHere":{"count":0,"lastCheckinExpiredAt":0,"marked":false,"unconfirmedCount":0},"hereNow":{"count":0,"summary":"Nobody here","groups":[]},"referralId":"v-1604765560","venueChains":[],"hasPerk":false},{"id":"5e1f0aa0477b080007a8a17e","name":"Flying Cinema Tour Of Helsinki","contact":{},"location":{"lat":60.167492,"lng":24.958477,"labeledLatLngs":[{"label":"display","lat":60.167492,"lng":24.958477}],"distance":2385,"postalCode":"00160","cc":"FI","city":"Helsinki","state":"Uusimaa","country":"Suomi","formattedAddress":["00160 Helsinki","Suomi"]},"categories":[{"id":"4bf58dd8d48988d17f941735","name":"Movie Theater","pluralName":"Movie Theaters","shortName":"Movie Theater","icon":{"prefix":"https:\/\/ss3.4sqi.net\/img\/categories_v2\/arts_entertainment\/movietheater_","suffix":".png"},"primary":true}],"verified":false,"stats":{"tipCount":0,"usersCount":0,"checkinsCount":0,"visitsCount":0},"beenHere":{"count":0,"lastCheckinExpiredAt":0,"marked":false,"unconfirmedCount":0},"hereNow":{"count":0,"summary":"Nobody here","groups":[]},"referralId":"v-1604765560","venueChains":[],"hasPerk":false},{"id":"5bfecb75e96d0c0039f18d63","name":"Sali 3 Luxe Premium","contact":{},"location":{"address":"Finnkino Itis","crossStreet":"Itäkatu 1-7","lat":60.21177383217166,"lng":25.082720518112183,"labeledLatLngs":[{"label":"display","lat":60.21177383217166,"lng":25.082720518112183}],"distance":10302,"postalCode":"00930","cc":"FI","city":"Helsinki","state":"Uusimaa","country":"Suomi","formattedAddress":["Finnkino Itis (Itäkatu 1-7)","00930 Helsinki","Suomi"]},"categories":[{"id":"4bf58dd8d48988d17f941735","name":"Movie Theater","pluralName":"Movie Theaters","shortName":"Movie Theater","icon":{"prefix":"https:\/\/ss3.4sqi.net\/img\/categories_v2\/arts_entertainment\/movietheater_","suffix":".png"},"primary":true}],"verified":false,"stats":{"tipCount":0,"usersCount":0,"checkinsCount":0,"visitsCount":0},"beenHere":{"count":0,"lastCheckinExpiredAt":0,"marked":false,"unconfirmedCount":0},"hereNow":{"count":0,"summary":"Nobody here","groups":[]},"referralId":"v-1604765560","venueChains":[],"hasPerk":false},{"id":"5bfecadfdd8442002cbe19b3","name":"Sali 2","contact":{},"location":{"address":"Finnkino Itis","crossStreet":"Itäkatu 1-7","lat":60.21174984698791,"lng":25.08281707763672,"labeledLatLngs":[{"label":"display","lat":60.21174984698791,"lng":25.08281707763672}],"distance":10306,"postalCode":"00930","cc":"FI","city":"Helsinki","state":"Uusimaa","country":"Suomi","formattedAddress":["Finnkino Itis (Itäkatu 1-7)","00930 Helsinki","Suomi"]},"categories":[{"id":"4bf58dd8d48988d17f941735","name":"Movie Theater","pluralName":"Movie Theaters","shortName":"Movie Theater","icon":{"prefix":"https:\/\/ss3.4sqi.net\/img\/categories_v2\/arts_entertainment\/movietheater_","suffix":".png"},"primary":true}],"verified":false,"stats":{"tipCount":0,"usersCount":0,"checkinsCount":0,"visitsCount":0},"beenHere":{"count":0,"lastCheckinExpiredAt":0,"marked":false,"unconfirmedCount":0},"hereNow":{"count":0,"summary":"Nobody here","groups":[]},"referralId":"v-1604765560","venueChains":[],"hasPerk":false},{"id":"5a2eab848496ca1be8fdd14a","name":"Vuotalon Elokuvasali","contact":{},"location":{"lat":60.208984,"lng":25.143366,"labeledLatLngs":[{"label":"display","lat":60.208984,"lng":25.143366}],"distance":13290,"postalCode":"00980","cc":"FI","city":"Helsinki","state":"Uusimaa","country":"Suomi","formattedAddress":["00980 Helsinki","Suomi"]},"categories":[{"id":"4bf58dd8d48988d17f941735","name":"Movie Theater","pluralName":"Movie Theaters","shortName":"Movie Theater","icon":{"prefix":"https:\/\/ss3.4sqi.net\/img\/categories_v2\/arts_entertainment\/movietheater_","suffix":".png"},"primary":true}],"verified":false,"stats":{"tipCount":0,"usersCount":0,"checkinsCount":0,"visitsCount":0},"beenHere":{"count":0,"lastCheckinExpiredAt":0,"marked":false,"unconfirmedCount":0},"hereNow":{"count":0,"summary":"Nobody here","groups":[]},"referralId":"v-1604765560","venueChains":[],"hasPerk":false},{"id":"5c728ea659c423002c04d8b2","name":"ISENSE","contact":{},"location":{"address":"Finnkino Omena","lat":60.161123384568434,"lng":24.73747730255127,"labeledLatLngs":[{"label":"display","lat":60.161123384568434,"lng":24.73747730255127}],"distance":9937,"postalCode":"02230","cc":"FI","city":"Espoo","state":"Uusimaa","country":"Suomi","formattedAddress":["Finnkino Omena","02230 Espoo","Suomi"]},"categories":[{"id":"4bf58dd8d48988d17f941735","name":"Movie Theater","pluralName":"Movie Theaters","shortName":"Movie Theater","icon":{"prefix":"https:\/\/ss3.4sqi.net\/img\/categories_v2\/arts_entertainment\/movietheater_","suffix":".png"},"primary":true}],"verified":false,"stats":{"tipCount":0,"usersCount":0,"checkinsCount":0,"visitsCount":0},"beenHere":{"count":0,"lastCheckinExpiredAt":0,"marked":false,"unconfirmedCount":0},"hereNow":{"count":0,"summary":"Nobody here","groups":[]},"referralId":"v-1604765560","venueChains":[],"hasPerk":false},{"id":"5b30bb29b77c77002c829ccd","name":"Sali 3","contact":{},"location":{"address":"Finnkino Flamingo","crossStreet":"Tasetie 8","lat":60.29063431291666,"lng":24.968866109848022,"labeledLatLngs":[{"label":"display","lat":60.29063431291666,"lng":24.968866109848022}],"distance":13668,"postalCode":"01510","cc":"FI","city":"Vantaa","state":"Uusimaa","country":"Suomi","formattedAddress":["Finnkino Flamingo (Tasetie 8)","01510 Vantaa","Suomi"]},"categories":[{"id":"4bf58dd8d48988d17f941735","name":"Movie Theater","pluralName":"Movie Theaters","shortName":"Movie Theater","icon":{"prefix":"https:\/\/ss3.4sqi.net\/img\/categories_v2\/arts_entertainment\/movietheater_","suffix":".png"},"primary":true}],"verified":false,"stats":{"tipCount":0,"usersCount":0,"checkinsCount":0,"visitsCount":0},"beenHere":{"count":0,"lastCheckinExpiredAt":0,"marked":false,"unconfirmedCount":0},"hereNow":{"count":0,"summary":"Nobody here","groups":[]},"referralId":"v-1604765560","venueChains":[],"hasPerk":false},{"id":"58f0d15793bd634eff1c0b3b","name":"Sali 3","contact":{},"location":{"address":"Finnkino Tennispalatsi","crossStreet":"Salomonkatu 15","lat":60.16934962686636,"lng":24.93086725473404,"labeledLatLngs":[{"label":"display","lat":60.16934962686636,"lng":24.93086725473404}],"distance":843,"postalCode":"00100","cc":"FI","city":"Helsinki","state":"Uusimaa","country":"Suomi","formattedAddress":["Finnkino Tennispalatsi (Salomonkatu 15)","00100 Helsinki","Suomi"]},"categories":[{"id":"4bf58dd8d48988d17f941735","name":"Movie Theater","pluralName":"Movie Theaters","shortName":"Movie Theater","icon":{"prefix":"https:\/\/ss3.4sqi.net\/img\/categories_v2\/arts_entertainment\/movietheater_","suffix":".png"},"primary":true}],"verified":false,"stats":{"tipCount":0,"usersCount":0,"checkinsCount":0,"visitsCount":0},"beenHere":{"count":0,"lastCheckinExpiredAt":0,"marked":false,"unconfirmedCount":0},"hereNow":{"count":0,"summary":"Nobody here","groups":[]},"referralId":"v-1604765560","venueChains":[],"hasPerk":false},{"id":"4d5299e407b1a0908ba8143c","name":"Kino Juha","contact":{},"location":{"address":"keskustie 7","lat":60.461700490368116,"lng":24.806471180656054,"labeledLatLngs":[{"label":"display","lat":60.461700490368116,"lng":24.806471180656054}],"distance":32950,"postalCode":"01900","cc":"FI","city":"Nurmijärvi","state":"Uusimaa","country":"Suomi","formattedAddress":["keskustie 7","01900 Nurmijärvi","Suomi"]},"categories":[{"id":"4bf58dd8d48988d17f941735","name":"Movie Theater","pluralName":"Movie Theaters","shortName":"Movie Theater","icon":{"prefix":"https:\/\/ss3.4sqi.net\/img\/categories_v2\/arts_entertainment\/movietheater_","suffix":".png"},"primary":true}],"verified":false,"stats":{"tipCount":0,"usersCount":0,"checkinsCount":0,"visitsCount":0},"beenHere":{"count":0,"lastCheckinExpiredAt":0,"marked":false,"unconfirmedCount":0},"hereNow":{"count":0,"summary":"Nobody here","groups":[]},"referralId":"v-1604765560","venueChains":[],"hasPerk":false},{"id":"56dc4e11498edb855531c9ef","name":"Sali 2","contact":{},"location":{"address":"Finnkino Kinopalatsi","crossStreet":"Kaisaniemenkatu 2","lat":60.17120421146884,"lng":24.9463767460735,"labeledLatLngs":[{"label":"display","lat":60.17120421146884,"lng":24.9463767460735}],"distance":1689,"postalCode":"00100","cc":"FI","city":"Helsinki","state":"Uusimaa","country":"Suomi","formattedAddress":["Finnkino Kinopalatsi (Kaisaniemenkatu 2)","00100 Helsinki","Suomi"]},"categories":[{"id":"4bf58dd8d48988d17f941735","name":"Movie Theater","pluralName":"Movie Theaters","shortName":"Movie Theater","icon":{"prefix":"https:\/\/ss3.4sqi.net\/img\/categories_v2\/arts_entertainment\/movietheater_","suffix":".png"},"primary":true}],"verified":false,"stats":{"tipCount":0,"usersCount":0,"checkinsCount":0,"visitsCount":0},"beenHere":{"count":0,"lastCheckinExpiredAt":0,"marked":false,"unconfirmedCount":0},"hereNow":{"count":0,"summary":"Nobody here","groups":[]},"referralId":"v-1604765560","venueChains":[],"hasPerk":false},{"id":"545e564b498e4d476e685142","name":"WHS Teatteri Union","contact":{},"location":{"address":"Siltavuorenranta 18","lat":60.175935247001405,"lng":24.951065070349618,"labeledLatLngs":[{"label":"display","lat":60.175935247001405,"lng":24.951065070349618}],"distance":2033,"cc":"FI","city":"Helsinki","state":"Uusimaa","country":"Suomi","formattedAddress":["Siltavuorenranta 18","Helsinki","Suomi"]},"categories":[{"id":"4bf58dd8d48988d135941735","name":"Indie Theater","pluralName":"Indie Theaters","shortName":"Indie","icon":{"prefix":"https:\/\/ss3.4sqi.net\/img\/categories_v2\/arts_entertainment\/performingarts_theater_","suffix":".png"},"primary":true}],"verified":false,"stats":{"tipCount":0,"usersCount":0,"checkinsCount":0,"visitsCount":0},"beenHere":{"count":0,"lastCheckinExpiredAt":0,"marked":false,"unconfirmedCount":0},"hereNow":{"count":0,"summary":"Nobody here","groups":[]},"referralId":"v-1604765560","venueChains":[],"hasPerk":false},{"id":"4c667237255e9521f101d6d8","name":"Kino Tapiola","contact":{},"location":{"address":"Mäntyviita 2","lat":60.17883519347216,"lng":24.810858622657666,"labeledLatLngs":[{"label":"display","lat":60.17883519347216,"lng":24.810858622657666}],"distance":5884,"postalCode":"02110","cc":"FI","city":"Espoo","state":"Uusimaa","country":"Suomi","formattedAddress":["Mäntyviita 2","02110 Espoo","Suomi"]},"categories":[{"id":"4bf58dd8d48988d17e941735","name":"Indie Movie Theater","pluralName":"Indie Movie Theaters","shortName":"Indie Movies","icon":{"prefix":"https:\/\/ss3.4sqi.net\/img\/categories_v2\/arts_entertainment\/movietheater_","suffix":".png"},"primary":true}],"verified":false,"stats":{"tipCount":0,"usersCount":0,"checkinsCount":0,"visitsCount":0},"beenHere":{"count":0,"lastCheckinExpiredAt":0,"marked":false,"unconfirmedCount":0},"hereNow":{"count":0,"summary":"Nobody here","groups":[]},"referralId":"v-1604765560","venueChains":[],"hasPerk":false},{"id":"4bae2d04f964a520e08d3be3","name":"Kino Engel","contact":{},"location":{"address":"Sofiankatu 4","lat":60.16867914639442,"lng":24.952088067844414,"labeledLatLngs":[{"label":"display","lat":60.16867914639442,"lng":24.952088067844414}],"distance":2017,"postalCode":"00170","cc":"FI","city":"Helsinki","state":"Uusimaa","country":"Suomi","formattedAddress":["Sofiankatu 4","00170 Helsinki","Suomi"]},"categories":[{"id":"4bf58dd8d48988d17e941735","name":"Indie Movie Theater","pluralName":"Indie Movie Theaters","shortName":"Indie Movies","icon":{"prefix":"https:\/\/ss3.4sqi.net\/img\/categories_v2\/arts_entertainment\/movietheater_","suffix":".png"},"primary":true}],"verified":false,"stats":{"tipCount":0,"usersCount":0,"checkinsCount":0,"visitsCount":0},"beenHere":{"count":0,"lastCheckinExpiredAt":0,"marked":false,"unconfirmedCount":0},"hereNow":{"count":0,"summary":"Nobody here","groups":[]},"referralId":"v-1604765560","venueChains":[],"hasPerk":false},{"id":"5bfeca701af8520039e51c10","name":"IMAX® Premium","contact":{},"location":{"address":"Finnkino Itis","crossStreet":"Itäkatu 1-7","lat":60.211586640873485,"lng":25.083338861878865,"labeledLatLngs":[{"label":"display","lat":60.211586640873485,"lng":25.083338861878865}],"distance":10324,"postalCode":"00930","cc":"FI","city":"Helsinki","state":"Uusimaa","country":"Suomi","formattedAddress":["Finnkino Itis (Itäkatu 1-7)","00930 Helsinki","Suomi"]},"categories":[{"id":"4bf58dd8d48988d17f941735","name":"Movie Theater","pluralName":"Movie Theaters","shortName":"Movie Theater","icon":{"prefix":"https:\/\/ss3.4sqi.net\/img\/categories_v2\/arts_entertainment\/movietheater_","suffix":".png"},"primary":true}],"verified":false,"stats":{"tipCount":0,"usersCount":0,"checkinsCount":0,"visitsCount":0},"beenHere":{"count":0,"lastCheckinExpiredAt":0,"marked":false,"unconfirmedCount":0},"hereNow":{"count":0,"summary":"Nobody here","groups":[]},"referralId":"v-1604765560","venueChains":[],"hasPerk":false},{"id":"4e0f2a2722711665f61bade3","name":"KesäKino Engel","contact":{},"location":{"address":"Aleksanterinkatu 26","lat":60.16897858806784,"lng":24.95175787751271,"labeledLatLngs":[{"label":"display","lat":60.16897858806784,"lng":24.95175787751271}],"distance":1996,"cc":"FI","city":"Helsinki","state":"Uusimaa","country":"Suomi","formattedAddress":["Aleksanterinkatu 26","Helsinki","Suomi"]},"categories":[{"id":"4bf58dd8d48988d17e941735","name":"Indie Movie Theater","pluralName":"Indie Movie Theaters","shortName":"Indie Movies","icon":{"prefix":"https:\/\/ss3.4sqi.net\/img\/categories_v2\/arts_entertainment\/movietheater_","suffix":".png"},"primary":true}],"verified":false,"stats":{"tipCount":0,"usersCount":0,"checkinsCount":0,"visitsCount":0},"beenHere":{"count":0,"lastCheckinExpiredAt":0,"marked":false,"unconfirmedCount":0},"hereNow":{"count":0,"summary":"Nobody here","groups":[]},"referralId":"v-1604765560","venueChains":[],"hasPerk":false},{"id":"4c4dc43c51c2c928d7b8589d","name":"Finnkino Omena","contact":{},"location":{"address":"Kauppakeskus Iso Omena","crossStreet":"Piispansilta 11","lat":60.161780362826654,"lng":24.737175577907333,"labeledLatLngs":[{"label":"display","lat":60.161780362826654,"lng":24.737175577907333}],"distance":9946,"postalCode":"02230","cc":"FI","city":"Espoo","state":"Uusimaa","country":"Suomi","formattedAddress":["Kauppakeskus Iso Omena (Piispansilta 11)","02230 Espoo","Suomi"]},"categories":[{"id":"4bf58dd8d48988d180941735","name":"Multiplex","pluralName":"Multiplexes","shortName":"Cineplex","icon":{"prefix":"https:\/\/ss3.4sqi.net\/img\/categories_v2\/arts_entertainment\/movietheater_","suffix":".png"},"primary":true}],"verified":false,"stats":{"tipCount":0,"usersCount":0,"checkinsCount":0,"visitsCount":0},"beenHere":{"count":0,"lastCheckinExpiredAt":0,"marked":false,"unconfirmedCount":0},"hereNow":{"count":0,"summary":"Nobody here","groups":[]},"referralId":"v-1604765560","venueChains":[],"hasPerk":false},{"id":"4adcdb25f964a5204c6121e3","name":"Finnkino Kinopalatsi","contact":{},"location":{"address":"Kaisaniemenkatu 2","lat":60.17143626473455,"lng":24.945698710740327,"labeledLatLngs":[{"label":"display","lat":60.17143626473455,"lng":24.945698710740327}],"distance":1653,"postalCode":"00100","cc":"FI","city":"Helsinki","country":"Suomi","formattedAddress":["Kaisaniemenkatu 2","00100 Helsinki","Suomi"]},"categories":[{"id":"4bf58dd8d48988d180941735","name":"Multiplex","pluralName":"Multiplexes","shortName":"Cineplex","icon":{"prefix":"https:\/\/ss3.4sqi.net\/img\/categories_v2\/arts_entertainment\/movietheater_","suffix":".png"},"primary":true}],"verified":false,"stats":{"tipCount":0,"usersCount":0,"checkinsCount":0,"visitsCount":0},"beenHere":{"count":0,"lastCheckinExpiredAt":0,"marked":false,"unconfirmedCount":0},"hereNow":{"count":0,"summary":"Nobody here","groups":[]},"referralId":"v-1604765560","venueChains":[],"hasPerk":false},{"id":"4fb3c126e4b066864891bb58","name":"Bio Rex","contact":{},"location":{"address":"Mannerheimintie 22-24","lat":60.1705406761485,"lng":24.936047916643993,"labeledLatLngs":[{"label":"display","lat":60.1705406761485,"lng":24.936047916643993}],"distance":1117,"postalCode":"00100","cc":"FI","neighborhood":"Kamppi","city":"Helsinki","state":"Uusimaa","country":"Suomi","formattedAddress":["Mannerheimintie 22-24","00100 Helsinki","Suomi"]},"categories":[{"id":"4bf58dd8d48988d17e941735","name":"Indie Movie Theater","pluralName":"Indie Movie Theaters","shortName":"Indie Movies","icon":{"prefix":"https:\/\/ss3.4sqi.net\/img\/categories_v2\/arts_entertainment\/movietheater_","suffix":".png"},"primary":true}],"verified":false,"stats":{"tipCount":0,"usersCount":0,"checkinsCount":0,"visitsCount":0},"beenHere":{"count":0,"lastCheckinExpiredAt":0,"marked":false,"unconfirmedCount":0},"hereNow":{"count":0,"summary":"Nobody here","groups":[]},"referralId":"v-1604765560","venueChains":[],"hasPerk":false},{"id":"4e42446aa8092520555283dd","name":"Myyrmäkitalo","contact":{},"location":{"address":"Paalutori 3","lat":60.26119487654466,"lng":24.853444917473084,"labeledLatLngs":[{"label":"display","lat":60.26119487654466,"lng":24.853444917473084}],"distance":10649,"postalCode":"01600","cc":"FI","city":"Vantaa","state":"Uusimaa","country":"Suomi","formattedAddress":["Paalutori 3","01600 Vantaa","Suomi"]},"categories":[{"id":"4bf58dd8d48988d130941735","name":"Building","pluralName":"Buildings","shortName":"Building","icon":{"prefix":"https:\/\/ss3.4sqi.net\/img\/categories_v2\/building\/default_","suffix":".png"},"primary":true}],"verified":false,"stats":{"tipCount":0,"usersCount":0,"checkinsCount":0,"visitsCount":0},"beenHere":{"count":0,"lastCheckinExpiredAt":0,"marked":false,"unconfirmedCount":0},"hereNow":{"count":0,"summary":"Nobody here","groups":[]},"referralId":"v-1604765560","venueChains":[],"hasPerk":false},{"id":"56ace67038fa86e5450c02b9","name":"Korjaamo Kino","contact":{},"location":{"address":"Kulttuuritehdas Korjaamo","crossStreet":"Töölönkatu 51 a-b","lat":60.18426227024173,"lng":24.91989748150407,"labeledLatLngs":[{"label":"display","lat":60.18426227024173,"lng":24.91989748150407}],"distance":1526,"postalCode":"00250","cc":"FI","city":"Helsinki","state":"Uusimaa","country":"Suomi","formattedAddress":["Kulttuuritehdas Korjaamo (Töölönkatu 51 a-b)","00250 Helsinki","Suomi"]},"categories":[{"id":"4bf58dd8d48988d17e941735","name":"Indie Movie Theater","pluralName":"Indie Movie Theaters","shortName":"Indie Movies","icon":{"prefix":"https:\/\/ss3.4sqi.net\/img\/categories_v2\/arts_entertainment\/movietheater_","suffix":".png"},"primary":true}],"verified":false,"stats":{"tipCount":0,"usersCount":0,"checkinsCount":0,"visitsCount":0},"beenHere":{"count":0,"lastCheckinExpiredAt":0,"marked":false,"unconfirmedCount":0},"hereNow":{"count":0,"summary":"Nobody here","groups":[]},"referralId":"v-1604765560","venueChains":[],"hasPerk":false},{"id":"4adcdb25f964a5204d6121e3","name":"Orion","contact":{},"location":{"address":"Eerikinkatu 15","lat":60.16639278724291,"lng":24.932824367227543,"labeledLatLngs":[{"label":"display","lat":60.16639278724291,"lng":24.932824367227543}],"distance":1053,"postalCode":"00100","cc":"FI","neighborhood":"Kamppi","city":"Helsinki","state":"Uusimaa","country":"Suomi","formattedAddress":["Eerikinkatu 15","00100 Helsinki","Suomi"]},"categories":[{"id":"4bf58dd8d48988d17e941735","name":"Indie Movie Theater","pluralName":"Indie Movie Theaters","shortName":"Indie Movies","icon":{"prefix":"https:\/\/ss3.4sqi.net\/img\/categories_v2\/arts_entertainment\/movietheater_","suffix":".png"},"primary":true}],"verified":false,"stats":{"tipCount":0,"usersCount":0,"checkinsCount":0,"visitsCount":0},"beenHere":{"count":0,"lastCheckinExpiredAt":0,"marked":false,"unconfirmedCount":0},"hereNow":{"count":0,"summary":"Nobody here","groups":[]},"referralId":"v-1604765560","venueChains":[],"hasPerk":false}],"confident":false}}