{"meta":{"code":200,"requestId":"5fa6c950442f6c14d03214fe"},"response":{"venues":[{"id":"4bbe21515ce0d13a0ba9df57","name":"Rotterdam","contact":{},"location":{"address":"Kauppakeskus Kamppi","crossStreet":"Tennispalatsinaukio 4","lat":60.16906976938815,"lng":24.932537266236917,"labeledLatLngs":[{"label":"display","lat":60.16906976938815,"lng":24.932537266236917}],"distance":940,"postalCode":"00100","cc":"FI","city":"Helsinki","state":"Uusimaa","country":"Suomi","formattedAddress":["Kauppakeskus Kamppi (Tennispalatsinaukio 4)","00100 Helsinki","Suomi"]},"categories":[{"id":"56aa371ce4b08b9a8d57356c","name":"Beer Bar","pluralName":"Beer Bars","shortName":"Beer Bar","icon":{"prefix":"https:\/\/ss3.4sqi.net\/img\/categories_v2\/nightlife\/pub_","suffix":".png"},"primary":true}],"verified":true,"stats":{"tipCount":0,"usersCount":0,"checkinsCount":0,"visitsCount":0},"beenHere":{"count":0,"lastCheckinExpiredAt":0,"marked":false,"unconfirmedCount":0},"hereNow":{"count":1,"summary":"One other person is here","groups":[{"type":"others","name":"Other people here","count":1,"items":[]}]},"referralId":"v-1604766032","venueChains":[],"hasPerk":false},{"id":"5f0c61b690a02b480cc62a14","name":"Pien Brewpub","contact":{},"location":{"address":"Hämeentie 15","lat":60.18459799999999,"lng":24.9606615,"labeledLatLngs":[{"label":"display","lat":60.18459799999999,"lng":24.9606615}],"distance":2922,"postalCode":"00500","cc":"FI","city":"Helsinki","state":"Uusimaa","country":"Suomi","formattedAddress":["Hämeentie 15","00500 Helsinki","Suomi"]},"categories":[{"id":"50327c8591d4c4b30a586d5d","name":"Brewery","pluralName":"Breweries","shortName":"Brewery","icon":{"prefix":"https:\/\/ss3.4sqi.net\/img\/categories_v2\/food\/brewery_","suffix":".png"},"primary":true}],"verified":false,"stats":{"tipCount":0,"usersCount":0,"checkinsCount":0,"visitsCount":0},"beenHere":{"count":0,"lastCheckinExpiredAt":0,"marked":false,"unconfirmedCount":0},"hereNow":{"count":0,"summary":"Nobody here","groups":[]},"referralId":"v-1604766032","venueChains":[],"hasPerk":false},{"id":"53b53f15498e31f84ce9481b","name":"Rotterdamin terassi","contact":{},"location":{"address":"Rotterdam","crossStreet":"Salomoninkatu","lat":60.169324,"lng":24.932196,"labeledLatLngs":[{"label":"display","lat":60.169324,"lng":24.932196}],"distance":916,"cc":"FI","neighborhood":"Kamppi","city":"Helsinki","state":"Uusimaa","country":"Suomi","formattedAddress":["Rotterdam (Salomoninkatu)","Helsinki","Suomi"]},"categories":[{"id":"4bf58dd8d48988d117941735","name":"Beer Garden","pluralName":"Beer Gardens","shortName":"Beer Garden","icon":{"prefix":"https:\/\/ss3.4sqi.net\/img\/categories_v2\/nightlife\/beergarden_","suffix":".png"},"primary":true}],"verified":false,"stats":{"tipCount":0,"usersCount":0,"checkinsCount":0,"visitsCount":0},"beenHere":{"count":0,"lastCheckinExpiredAt":0,"marked":false,"unconfirmedCount":0},"hereNow":{"count":0,"summary":"Nobody here","groups":[]},"referralId":"v-1604766032","venueChains":[],"hasPerk":false},{"id":"5c6840f3e55d8b002cc07887","name":"Bar Llamas","contact":{},"location":{"address":"Iso Roobertinkatu 14","lat":60.16346946964292,"lng":24.94237929582596,"labeledLatLngs":[{"label":"display","lat":60.16346946964292,"lng":24.94237929582596}],"distance":1673,"postalCode":"00120","cc":"FI","city":"Helsinki","state":"Uusimaa","country":"Suomi","formattedAddress":["Iso Roobertinkatu 14","00120 Helsinki","Suomi"]},"categories":[{"id":"4bf58dd8d48988d116941735","name":"Bar","pluralName":"Bars","shortName":"Bar","icon":{"prefix":"https:\/\/ss3.4sqi.net\/img\/categories_v2\/nightlife\/pub_","suffix":".png"},"primary":true}],"verified":false,"stats":{"tipCount":0,"usersCount":0,"checkinsCount":0,"visitsCount":0},"beenHere":{"count":0,"lastCheckinExpiredAt":0,"marked":false,"unconfirmedCount":0},"hereNow":{"count":0,"summary":"Nobody here","groups":[]},"referralId":"v-1604766032","venueChains":[],"hasPerk":false},{"id":"5da5e7ee33812e0007c1f9b8","name":"Bierhaus Berlin","contact":{},"location":{"address":"Mall of Tripla, 3. krs","crossStreet":"Firdonkatu 2 B","lat":60.19787681007801,"lng":24.92897294461727,"labeledLatLngs":[{"label":"display","lat":60.19787681007801,"lng":24.92897294461727}],"distance":3111,"postalCode":"00520","cc":"FI","city":"Helsinki","state":"Uusimaa","country":"Suomi","formattedAddress":["Mall of Tripla, 3. krs (Firdonkatu 2 B)","00520 Helsinki","Suomi"]},"categories":[{"id":"56aa371ce4b08b9a8d57356c","name":"Beer Bar","pluralName":"Beer Bars","shortName":"Beer Bar","icon":{"prefix":"https:\/\/ss3.4sqi.net\/img\/categories_v2\/nightlife\/pub_","suffix":".png"},"primary":true}],"verified":false,"stats":{"tipCount":0,"usersCount":0,"checkinsCount":0,"visitsCount":0},"beenHere":{"count":0,"lastCheckinExpiredAt":0,"marked":false,"unconfirmedCount":0},"hereNow":{"count":0,"summary":"Nobody here","groups":[]},"referralId":"v-1604766032","venueChains":[],"hasPerk":false},{"id":"5cf2b1de270ee7002cb1ef4f","name":"FLÄT no 14","contact":{},"location":{"address":"Viides linja 14","lat":60.183671,"lng":24.95173,"labeledLatLngs":[{"label":"display","lat":60.183671,"lng":24.95173}],"distance":2454,"postalCode":"00530","cc":"FI","neighborhood":"Torkkelinmäki","city":"Helsinki","state":"Uusimaa","country":"Suomi","formattedAddress":["Viides linja 14","00530 Helsinki","Suomi"]},"categories":[{"id":"4bf58dd8d48988d143941735","name":"Breakfast Spot","pluralName":"Breakfast Spots","shortName":"Breakfast","icon":{"prefix":"https:\/\/ss3.4sqi.net\/img\/categories_v2\/food\/breakfast_","suffix":".png"},"primary":true}],"verified":false,"stats":{"tipCount":0,"usersCount":0,"checkinsCount":0,"visitsCount":0},"beenHere":{"count":0,"lastCheckinExpiredAt":0,"marked":false,"unconfirmedCount":0},"hereNow":{"count":0,"summary":"Nobody here","groups":[]},"referralId":"v-1604766032","venueChains":[],"hasPerk":false},{"id":"5a60aaffe1f2287023899c85","name":"Panema","contact":{},"location":{"address":"Helsinginkatu 11","lat":60.18739962649576,"lng":24.956268229060118,"labeledLatLngs":[{"label":"display","lat":60.18739962649576,"lng":24.956268229060118}],"distance":2907,"postalCode":"00500","cc":"FI","city":"Helsinki","state":"Uusimaa","country":"Suomi","formattedAddress":["Helsinginkatu 11","00500 Helsinki","Suomi"]},"categories":[{"id":"56aa371ce4b08b9a8d57356c","name":"Beer Bar","pluralName":"Beer Bars","shortName":"Beer Bar","icon":{"prefix":"https:\/\/ss3.4sqi.net\/img\/categories_v2\/nightlife\/pub_","suffix":".png"},"primary":true}],"verified":true,"stats":{"tipCount":0,"usersCount":0,"checkinsCount":0,"visitsCount":0},"beenHere":{"count":0,"lastCheckinExpiredAt":0,"marked":false,"unconfirmedCount":0},"hereNow":{"count":0,"summary":"Nobody here","groups":[]},"referralId":"v-1604766032","venueChains":[],"hasPerk":false},{"id":"5bbfa6041ffed7002b5613eb","name":"Suvilahti TBA","contact":{},"location":{"address":"Kaasutehtaankatu 1","crossStreet":"Rakennus 8, Kojehuone","lat":60.186613065952756,"lng":24.97352711856365,"labeledLatLngs":[{"label":"display","lat":60.186613065952756,"lng":24.97352711856365}],"distance":3650,"postalCode":"00540","cc":"FI","city":"Helsinki","state":"Uusimaa","country":"Suomi","formattedAddress":["Kaasutehtaankatu 1 (Rakennus 8, Kojehuone)","00540 Helsinki","Suomi"]},"categories":[{"id":"4bf58dd8d48988d1e5931735","name":"Music Venue","pluralName":"Music Venues","shortName":"Music Venue","icon":{"prefix":"https:\/\/ss3.4sqi.net\/img\/categories_v2\/arts_entertainment\/musicvenue_","suffix":".png"},"primary":true}],"verified":false,"stats":{"tipCount":0,"usersCount":0,"checkinsCount":0,"visitsCount":0},"beenHere":{"count":0,"lastCheckinExpiredAt":0,"marked":false,"unconfirmedCount":0},"hereNow":{"count":0,"summary":"Nobody here","groups":[]},"referralId":"v-1604766032","venueChains":[],"hasPerk":false},{"id":"5530c2c1498ebe46790bba10","name":"Stadin Panimobaari","contact":{},"location":{"address":"Kaasutehtaankatu 1, rakennus 6","crossStreet":"Sörnäisten rantatie","lat":60.18677642986204,"lng":24.973148084127846,"labeledLatLngs":[{"label":"display","lat":60.18677642986204,"lng":24.973148084127846}],"distance":3640,"postalCode":"00540","cc":"FI","city":"Helsinki","state":"Uusimaa","country":"Suomi","formattedAddress":["Kaasutehtaankatu 1, rakennus 6 (Sörnäisten rantatie)","00540 Helsinki","Suomi"]},"categories":[{"id":"50327c8591d4c4b30a586d5d","name":"Brewery","pluralName":"Breweries","shortName":"Brewery","icon":{"prefix":"https:\/\/ss3.4sqi.net\/img\/categories_v2\/food\/brewery_","suffix":".png"},"primary":true}],"verified":false,"stats":{"tipCount":0,"usersCount":0,"checkinsCount":0,"visitsCount":0},"beenHere":{"count":0,"lastCheckinExpiredAt":0,"marked":false,"unconfirmedCount":0},"hereNow":{"count":0,"summary":"Nobody here","groups":[]},"referralId":"v-1604766032","venueChains":[],"hasPerk":false},{"id":"4adcdb20f964a520c85f21e3","name":"Juttutupa","contact":{},"location":{"address":"Säästöpankinranta 6","lat":60.17890112093717,"lng":24.947140478298103,"labeledLatLngs":[{"label":"display","lat":60.17890112093717,"lng":24.947140478298103}],"distance":1956,"postalCode":"00530","cc":"FI","city":"Helsinki","state":"Uusimaa","country":"Suomi","formattedAddress":["Säästöpankinranta 6","00530 Helsinki","Suomi"]},"categories":[{"id":"4bf58dd8d48988d155941735","name":"Gastropub","pluralName":"Gastropubs","shortName":"Gastropub","icon":{"prefix":"https:\/\/ss3.4sqi.net\/img\/categories_v2\/food\/gastropub_","suffix":".png"},"primary":true}],"verified":false,"stats":{"tipCount":0,"usersCount":0,"checkinsCount":0,"visitsCount":0},"beenHere":{"count":0,"lastCheckinExpiredAt":0,"marked":false,"unconfirmedCount":0},"hereNow":{"count":0,"summary":"Nobody here","groups":[]},"referralId":"v-1604766032","venueChains":[],"hasPerk":false},{"id":"58d56440326c5a4a010cdc5a","name":"Sörkan Ruusu","contact":{},"location":{"address":"Pääskylänrinne 3","lat":60.18807774212959,"lng":24.965998468598652,"labeledLatLngs":[{"label":"display","lat":60.18807774212959,"lng":24.965998468598652}],"distance":3382,"postalCode":"00500","cc":"FI","city":"Helsinki","state":"Uusimaa","country":"Suomi","formattedAddress":["Pääskylänrinne 3","00500 Helsinki","Suomi"]},"categories":[{"id":"56aa371ce4b08b9a8d57356c","name":"Beer Bar","pluralName":"Beer Bars","shortName":"Beer Bar","icon":{"prefix":"https:\/\/ss3.4sqi.net\/img\/categories_v2\/nightlife\/pub_","suffix":".png"},"primary":true}],"verified":false,"stats":{"tipCount":0,"usersCount":0,"checkinsCount":0,"visitsCount":0},"beenHere":{"count":0,"lastCheckinExpiredAt":0,"marked":false,"unconfirmedCount":0},"hereNow":{"count":0,"summary":"Nobody here","groups":[]},"referralId":"v-1604766032","venueChains":[],"hasPerk":false},{"id":"4b1d3391f964a520e30c24e3","name":"Oljenkorsi","contact":{},"location":{"address":"Intiankatu 18","crossStreet":"Kustaa Vaasan tie","lat":60.207417671283466,"lng":24.968566184905388,"labeledLatLngs":[{"label":"display","lat":60.207417671283466,"lng":24.968566184905388}],"distance":5020,"postalCode":"00560","cc":"FI","city":"Helsinki","state":"Uusimaa","country":"Suomi","formattedAddress":["Intiankatu 18 (Kustaa Vaasan tie)","00560 Helsinki","Suomi"]},"categories":[{"id":"4bf58dd8d48988d11b941735","name":"Pub","pluralName":"Pubs","shortName":"Pub","icon":{"prefix":"https:\/\/ss3.4sqi.net\/img\/categories_v2\/nightlife\/pub_","suffix":".png"},"primary":true}],"verified":true,"stats":{"tipCount":0,"usersCount":0,"checkinsCount":0,"visitsCount":0},"beenHere":{"count":0,"lastCheckinExpiredAt":0,"marked":false,"unconfirmedCount":0},"hereNow":{"count":0,"summary":"Nobody here","groups":[]},"referralId":"v-1604766032","venueChains":[],"hasPerk":false},{"id":"4c420e48e26920a11d755fe7","name":"Sivukirjasto","contact":{},"location":{"address":"Fleminginkatu 5","lat":60.18434851210949,"lng":24.953170936370626,"labeledLatLngs":[{"label":"display","lat":60.18434851210949,"lng":24.953170936370626}],"distance":2563,"postalCode":"00530","cc":"FI","city":"Helsinki","state":"Uusimaa","country":"Suomi","formattedAddress":["Fleminginkatu 5","00530 Helsinki","Suomi"]},"categories":[{"id":"56aa371ce4b08b9a8d57356c","name":"Beer Bar","pluralName":"Beer Bars","shortName":"Beer Bar","icon":{"prefix":"https:\/\/ss3.4sqi.net\/img\/categories_v2\/nightlife\/pub_","suffix":".png"},"primary":true}],"verified":true,"stats":{"tipCount":0,"usersCount":0,"checkinsCount":0,"visitsCount":0},"beenHere":{"count":0,"lastCheckinExpiredAt":0,"marked":false,"unconfirmedCount":0},"venuePage":{"id":"46177326"},"hereNow":{"count":1,"summary":"One other person is here","groups":[{"type":"others","name":"Other people here","count":1,"items":[]}]},"referralId":"v-1604766032","venueChains":[],"hasPerk":false},{"id":"4bdac4ea63c5c9b6a8d92468","name":"M\/S Flying Dutch","contact":{},"location":{"address":"Pitkänsillanranta 2","lat":60.17665474070887,"lng":24.94939461350441,"labeledLatLngs":[{"label":"display","lat":60.17665474070887,"lng":24.94939461350441}],"distance":1970,"postalCode":"00530","cc":"FI","city":"Helsinki","state":"Uusimaa","country":"Suomi","formattedAddress":["Pitkänsillanranta 2","00530 Helsinki","Suomi"]},"categories":[{"id":"4bf58dd8d48988d12d951735","name":"Boat or Ferry","pluralName":"Boats or Ferries","shortName":"Boat \/ Ferry","icon":{"prefix":"https:\/\/ss3.4sqi.net\/img\/categories_v2\/travel\/boat_","suffix":".png"},"primary":true}],"verified":false,"stats":{"tipCount":0,"usersCount":0,"checkinsCount":0,"visitsCount":0},"beenHere":{"count":0,"lastCheckinExpiredAt":0,"marked":false,"unconfirmedCount":0},"hereNow":{"count":0,"summary":"Nobody here","groups":[]},"referralId":"v-1604766032","venueChains":[],"hasPerk":false},{"id":"534bd84d498e7b6c30d71b39","name":"Allas Sea Pool","contact":{},"location":{"address":"Katajanokanlaituri 2","lat":60.167112178045066,"lng":24.957966669324833,"labeledLatLngs":[{"label":"display","lat":60.167112178045066,"lng":24.957966669324833}],"distance":2364,"postalCode":"00160","cc":"FI","city":"Helsinki","state":"Southern Finland","country":"Suomi","formattedAddress":["Katajanokanlaituri 2","00160 Helsinki","Suomi"]},"categories":[{"id":"4bf58dd8d48988d15e941735","name":"Pool","pluralName":"Pools","shortName":"Pool","icon":{"prefix":"https:\/\/ss3.4sqi.net\/img\/categories_v2\/parks_outdoors\/pool_","suffix":".png"},"primary":true}],"verified":true,"stats":{"tipCount":0,"usersCount":0,"checkinsCount":0,"visitsCount":0},"beenHere":{"count":0,"lastCheckinExpiredAt":0,"marked":false,"unconfirmedCount":0},"venuePage":{"id":"83740738"},"hereNow":{"count":1,"summary":"One other person is here","groups":[{"type":"others","name":"Other people here","count":1,"items":[]}]},"referralId":"v-1604766032","venueChains":[],"hasPerk":false},{"id":"4adcdb22f964a5205c6021e3","name":"Siltanen","contact":{},"location":{"address":"Hämeentie 13 B","lat":60.18424733568201,"lng":24.96036395915457,"labeledLatLngs":[{"label":"display","lat":60.18424733568201,"lng":24.96036395915457}],"distance":2887,"postalCode":"00530","cc":"FI","neighborhood":"Sörnäinen","city":"Helsinki","state":"Uusimaa","country":"Suomi","formattedAddress":["Hämeentie 13 B","00530 Helsinki","Suomi"]},"categories":[{"id":"4bf58dd8d48988d116941735","name":"Bar","pluralName":"Bars","shortName":"Bar","icon":{"prefix":"https:\/\/ss3.4sqi.net\/img\/categories_v2\/nightlife\/pub_","suffix":".png"},"primary":true}],"verified":false,"stats":{"tipCount":0,"usersCount":0,"checkinsCount":0,"visitsCount":0},"beenHere":{"count":0,"lastCheckinExpiredAt":0,"marked":false,"unconfirmedCount":0},"hereNow":{"count":0,"summary":"Nobody here","groups":[]},"referralId":"v-1604766032","venueChains":[],"hasPerk":false},{"id":"4aea0aa8f964a520bfb821e3","name":"Ravintola Iltakoulu","contact":{},"location":{"address":"Vaasankatu 5","crossStreet":"Vaasanpolku","lat":60.18828096629258,"lng":24.960354755535555,"labeledLatLngs":[{"label":"display","lat":60.18828096629258,"lng":24.960354755535555}],"distance":3145,"postalCode":"00500","cc":"FI","city":"Helsinki","state":"Uusimaa","country":"Suomi","formattedAddress":["Vaasankatu 5 (Vaasanpolku)","00500 Helsinki","Suomi"]},"categories":[{"id":"4bf58dd8d48988d118941735","name":"Dive Bar","pluralName":"Dive Bars","shortName":"Dive Bar","icon":{"prefix":"https:\/\/ss3.4sqi.net\/img\/categories_v2\/nightlife\/divebar_","suffix":".png"},"primary":true}],"verified":false,"stats":{"tipCount":0,"usersCount":0,"checkinsCount":0,"visitsCount":0},"beenHere":{"count":0,"lastCheckinExpiredAt":0,"marked":false,"unconfirmedCount":0},"hereNow":{"count":0,"summary":"Nobody here","groups":[]},"referralId":"v-1604766032","venueChains":[],"hasPerk":false},{"id":"5173df84e4b0bb056be47496","name":"Bar Loosister","contact":{},"location":{"address":"Hämeentie 50","lat":60.186938323104485,"lng":24.961500277665653,"labeledLatLngs":[{"label":"display","lat":60.186938323104485,"lng":24.961500277665653}],"distance":3105,"postalCode":"00500","cc":"FI","neighborhood":"Sörnäinen","city":"Helsinki","state":"Uusimaa","country":"Suomi","formattedAddress":["Hämeentie 50","00500 Helsinki","Suomi"]},"categories":[{"id":"4bf58dd8d48988d116941735","name":"Bar","pluralName":"Bars","shortName":"Bar","icon":{"prefix":"https:\/\/ss3.4sqi.net\/img\/categories_v2\/nightlife\/pub_","suffix":".png"},"primary":true}],"verified":false,"stats":{"tipCount":0,"usersCount":0,"checkinsCount":0,"visitsCount":0},"beenHere":{"count":0,"lastCheckinExpiredAt":0,"marked":false,"unconfirmedCount":0},"hereNow":{"count":0,"summary":"Nobody here","groups":[]},"referralId":"v-1604766032","venueChains":[],"hasPerk":false},{"id":"57ab4c95498ef8003be05e61","name":"Pien Shop & Bar","contact":{},"location":{"address":"Ateneuminkuja 2","lat":60.16967317676566,"lng":24.94452640414238,"labeledLatLngs":[{"label":"display","lat":60.16967317676566,"lng":24.94452640414238}],"distance":1590,"postalCode":"00100","cc":"FI","neighborhood":"Kluuvi","city":"Helsinki","state":"Uusimaa","country":"Suomi","formattedAddress":["Ateneuminkuja 2","00100 Helsinki","Suomi"]},"categories":[{"id":"5370f356bcbc57f1066c94c2","name":"Beer Store","pluralName":"Beer Stores","shortName":"Beer Store","icon":{"prefix":"https:\/\/ss3.4sqi.net\/img\/categories_v2\/nightlife\/beergarden_","suffix":".png"},"primary":true}],"verified":false,"stats":{"tipCount":0,"usersCount":0,"checkinsCount":0,"visitsCount":0},"beenHere":{"count":0,"lastCheckinExpiredAt":0,"marked":false,"unconfirmedCount":0},"hereNow":{"count":0,"summary":"Nobody here","groups":[]},"referralId":"v-1604766032","venueChains":[],"hasPerk":false},{"id":"5a3aa3b91bc7040b773e856c","name":"Ravintola Fat Lizard","contact":{},"location":{"address":"Tietotie 1","lat":60.18551588431524,"lng":24.820387065410614,"labeledLatLngs":[{"label":"display","lat":60.18551588431524,"lng":24.820387065410614}],"distance":5537,"postalCode":"02150","cc":"FI","city":"Espoo","state":"Uusimaa","country":"Suomi","formattedAddress":["Tietotie 1","02150 Espoo","Suomi"]},"categories":[{"id":"4bf58dd8d48988d1c4941735","name":"Restaurant","pluralName":"Restaurants","shortName":"Restaurant","icon":{"prefix":"https:\/\/ss3.4sqi.net\/img\/categories_v2\/food\/default_","suffix":".png"},"primary":true}],"verified":true,"stats":{"tipCount":0,"usersCount":0,"checkinsCount":0,"visitsCount":0},"beenHere":{"count":0,"lastCheckinExpiredAt":0,"marked":false,"unconfirmedCount":0},"hereNow":{"count":0,"summary":"Nobody here","groups":[]},"referralId":"v-1604766032","venueChains":[],"hasPerk":false},{"id":"4cf22f4b6195721e4a3946c1","name":"Mattolaituri","contact":{},"location":{"address":"Ehrenströmintie 3 A","lat":60.15376742902521,"lng":24.955871477723118,"labeledLatLngs":[{"label":"display","lat":60.15376742902521,"lng":24.955871477723118}],"distance":2908,"postalCode":"00140","cc":"FI","city":"Helsinki","state":"Uusimaa","country":"Suomi","formattedAddress":["Ehrenströmintie 3 A","00140 Helsinki","Suomi"]},"categories":[{"id":"4bf58dd8d48988d123941735","name":"Wine Bar","pluralName":"Wine Bars","shortName":"Wine Bar","icon":{"prefix":"https:\/\/ss3.4sqi.net\/img\/categories_v2\/food\/winery_","suffix":".png"},"primary":true}],"verified":true,"stats":{"tipCount":0,"usersCount":0,"checkinsCount":0,"visitsCount":0},"beenHere":{"count":0,"lastCheckinExpiredAt":0,"marked":false,"unconfirmedCount":0},"hereNow":{"count":0,"summary":"Nobody here","groups":[]},"referralId":"v-1604766032","venueChains":[],"hasPerk":false},{"id":"4adcdb21f964a5201e6021e3","name":"Rytmi","contact":{},"location":{"address":"Toinen linja 2","crossStreet":"Siltasaarenkatu","lat":60.180909762482926,"lng":24.95001312735613,"labeledLatLngs":[{"label":"display","lat":60.180909762482926,"lng":24.95001312735613}],"distance":2205,"postalCode":"00530","cc":"FI","city":"Helsinki","state":"Uusimaa","country":"Suomi","formattedAddress":["Toinen linja 2 (Siltasaarenkatu)","00530 Helsinki","Suomi"]},"categories":[{"id":"4bf58dd8d48988d116941735","name":"Bar","pluralName":"Bars","shortName":"Bar","icon":{"prefix":"https:\/\/ss3.4sqi.net\/img\/categories_v2\/nightlife\/pub_","suffix":".png"},"primary":true}],"verified":false,"stats":{"tipCount":0,"usersCount":0,"checkinsCount":0,"visitsCount":0},"beenHere":{"count":0,"lastCheckinExpiredAt":0,"marked":false,"unconfirmedCount":0},"hereNow":{"count":0,"summary":"Nobody here","groups":[]},"referralId":"v-1604766032","venueChains":[],"hasPerk":false},{"id":"5eff215f80dc900007cf35c7","name":"Senaatintorin kesäterassi 2020","contact":{},"location":{"address":"Unioninkatu","crossStreet":"Aleksanterinkatu","lat":60.169483,"lng":24.952327,"labeledLatLngs":[{"label":"display","lat":60.169483,"lng":24.952327}],"distance":2022,"postalCode":"00170","cc":"FI","city":"Helsinki","state":"Uusimaa","country":"Suomi","formattedAddress":["Unioninkatu (Aleksanterinkatu)","00170 Helsinki","Suomi"]},"categories":[{"id":"56aa371be4b08b9a8d57356a","name":"Outdoor Event Space","pluralName":"Outdoor Event Spaces","shortName":"Outdoor Event Space","icon":{"prefix":"https:\/\/ss3.4sqi.net\/img\/categories_v2\/building\/eventspace_","suffix":".png"},"primary":true}],"verified":false,"stats":{"tipCount":0,"usersCount":0,"checkinsCount":0,"visitsCount":0},"beenHere":{"count":0,"lastCheckinExpiredAt":0,"marked":false,"unconfirmedCount":0},"hereNow":{"count":0,"summary":"Nobody here","groups":[]},"referralId":"v-1604766032","venueChains":[],"hasPerk":false},{"id":"574f4f55498ec2a700a94efd","name":"Pub Aleksis K","contact":{},"location":{"address":"Aleksis Kiven katu","lat":60.189237,"lng":24.957557,"labeledLatLngs":[{"label":"display","lat":60.189237,"lng":24.957557}],"distance":3095,"postalCode":"00500","cc":"FI","city":"Helsinki","state":"Uusimaa","country":"Suomi","formattedAddress":["Aleksis Kiven katu","00500 Helsinki","Suomi"]},"categories":[{"id":"4bf58dd8d48988d116941735","name":"Bar","pluralName":"Bars","shortName":"Bar","icon":{"prefix":"https:\/\/ss3.4sqi.net\/img\/categories_v2\/nightlife\/pub_","suffix":".png"},"primary":true}],"verified":false,"stats":{"tipCount":0,"usersCount":0,"checkinsCount":0,"visitsCount":0},"beenHere":{"count":0,"lastCheckinExpiredAt":0,"marked":false,"unconfirmedCount":0},"hereNow":{"count":0,"summary":"Nobody here","groups":[]},"referralId":"v-1604766032","venueChains":[],"hasPerk":false},{"id":"5bb7564365cdf800391b1a68","name":"Olarin Panimo","contact":{},"location":{"address":"Metallimiehenkuja 8","lat":60.182907,"lng":24.82968,"labeledLatLngs":[{"label":"display","lat":60.182907,"lng":24.82968}],"distance":4961,"postalCode":"02150","cc":"FI","city":"Espoo","state":"Uusimaa","country":"Suomi","formattedAddress":["Metallimiehenkuja 8","02150 Espoo","Suomi"]},"categories":[{"id":"50327c8591d4c4b30a586d5d","name":"Brewery","pluralName":"Breweries","shortName":"Brewery","icon":{"prefix":"https:\/\/ss3.4sqi.net\/img\/categories_v2\/food\/brewery_","suffix":".png"},"primary":true}],"verified":false,"stats":{"tipCount":0,"usersCount":0,"checkinsCount":0,"visitsCount":0},"beenHere":{"count":0,"lastCheckinExpiredAt":0,"marked":false,"unconfirmedCount":0},"hereNow":{"count":0,"summary":"Nobody here","groups":[]},"referralId":"v-1604766032","venueChains":[],"hasPerk":false},{"id":"4b1972caf964a52088dd23e3","name":"One Pint Pub","contact":{},"location":{"address":"Santakatu 2","crossStreet":"Ruoholahti","lat":60.162014265266144,"lng":24.92006656021696,"labeledLatLngs":[{"label":"display","lat":60.162014265266144,"lng":24.92006656021696}],"distance":994,"postalCode":"00180","cc":"FI","city":"Helsinki","state":"Uusimaa","country":"Suomi","formattedAddress":["Santakatu 2 (Ruoholahti)","00180 Helsinki","Suomi"]},"categories":[{"id":"56aa371ce4b08b9a8d57356c","name":"Beer Bar","pluralName":"Beer Bars","shortName":"Beer Bar","icon":{"prefix":"https:\/\/ss3.4sqi.net\/img\/categories_v2\/nightlife\/pub_","suffix":".png"},"primary":true}],"verified":true,"stats":{"tipCount":0,"usersCount":0,"checkinsCount":0,"visitsCount":0},"beenHere":{"count":0,"lastCheckinExpiredAt":0,"marked":false,"unconfirmedCount":0},"hereNow":{"count":0,"summary":"Nobody here","groups":[]},"referralId":"v-1604766032","venueChains":[],"hasPerk":false},{"id":"533a7482498ebe4937dcbee6","name":"Woolshed Bar & Kitchen","contact":{},"location":{"address":"Töölönlahdenkatu 3 B 1","crossStreet":"Under new KPMG building","lat":60.173534,"lng":24.939071,"labeledLatLngs":[{"label":"display","lat":60.173534,"lng":24.939071}],"distance":1322,"postalCode":"00100","cc":"FI","city":"Helsinki","state":"Etelä-Suomen Lääni","country":"Suomi","formattedAddress":["Töölönlahdenkatu 3 B 1 (Under new KPMG building)","00100 Helsinki","Suomi"]},"categories":[{"id":"4bf58dd8d48988d16c941735","name":"Burger Joint","pluralName":"Burger Joints","shortName":"Burgers","icon":{"prefix":"https:\/\/ss3.4sqi.net\/img\/categories_v2\/food\/burger_","suffix":".png"},"primary":true}],"verified":true,"stats":{"tipCount":0,"usersCount":0,"checkinsCount":0,"visitsCount":0},"beenHere":{"count":0,"lastCheckinExpiredAt":0,"marked":false,"unconfirmedCount":0},"venuePage":{"id":"84196455"},"hereNow":{"count":0,"summary":"Nobody here","groups":[]},"referralId":"v-1604766032","venueChains":[],"hasPerk":false},{"id":"4b577edff964a5202a3828e3","name":"Praha","contact":{},"location":{"address":"Mannerheimintie 5","crossStreet":"Kaivopiha","lat":60.16949003006114,"lng":24.940499276498564,"labeledLatLngs":[{"label":"display","lat":60.16949003006114,"lng":24.940499276498564}],"distance":1370,"postalCode":"00100","cc":"FI","city":"Helsinki","state":"Uusimaa","country":"Suomi","formattedAddress":["Mannerheimintie 5 (Kaivopiha)","00100 Helsinki","Suomi"]},"categories":[{"id":"56aa371ce4b08b9a8d57356c","name":"Beer Bar","pluralName":"Beer Bars","shortName":"Beer Bar","icon":{"prefix":"https:\/\/ss3.4sqi.net\/img\/categories_v2\/nightlife\/pub_","suffix":".png"},"primary":true}],"verified":true,"stats":{"tipCount":0,"usersCount":0,"checkinsCount":0,"visitsCount":0},"beenHere":{"count":0,"lastCheckinExpiredAt":0,"marked":false,"unconfirmedCount":0},"venuePage":{"id":"33622837"},"hereNow":{"count":0,"summary":"Nobody here","groups":[]},"referralId":"v-1604766032","venueChains":[],"hasPerk":false},{"id":"4e2eab9222717d70585813c3","name":"Kahvila-Ravintola Wanha Pehtoori","contact":{},"location":{"address":"Haltialan tila","crossStreet":"Laamannintie 17","lat":60.27544012317452,"lng":24.95433109109707,"labeledLatLngs":[{"label":"display","lat":60.27544012317452,"lng":24.95433109109707}],"distance":11851,"postalCode":"00690","cc":"FI","city":"Helsinki","state":"Uusimaa","country":"Suomi","formattedAddress":["Haltialan tila (Laamannintie 17)","00690 Helsinki","Suomi"]},"categories":[{"id":"4bf58dd8d48988d1c4941735","name":"Restaurant","pluralName":"Restaurants","shortName":"Restaurant","icon":{"prefix":"https:\/\/ss3.4sqi.net\/img\/categories_v2\/food\/default_","suffix":".png"},"primary":true}],"verified":false,"stats":{"tipCount":0,"usersCount":0,"checkinsCount":0,"visitsCount":0},"beenHere":{"count":0,"lastCheckinExpiredAt":0,"marked":false,"unconfirmedCount":0},"hereNow":{"count":0,"summary":"Nobody here","groups":[]},"referralId":"v-1604766032","venueChains":[],"hasPerk":false},{"id":"5c93786161f070002cd94d31","name":"Olutravintola Pikkulintu","contact":{},"location":{"address":"Lönnrotinkatu 11","lat":60.1658932577839,"lng":24.93686519981724,"labeledLatLngs":[{"label":"display","lat":60.1658932577839,"lng":24.93686519981724}],"distance":1279,"postalCode":"00120","cc":"FI","neighborhood":"Kamppi","city":"Helsinki","state":"Uusimaa","country":"Suomi","formattedAddress":["Lönnrotinkatu 11","00120 Helsinki","Suomi"]},"categories":[{"id":"56aa371ce4b08b9a8d57356c","name":"Beer Bar","pluralName":"Beer Bars","shortName":"Beer Bar","icon":{"prefix":"https:\/\/ss3.4sqi.net\/img\/categories_v2\/nightlife\/pub_","suffix":".png"},"primary":true}],"verified":false,"stats":{"tipCount":0,"usersCount":0,"checkinsCount":0,"visitsCount":0},"beenHere":{"count":0,"lastCheckinExpiredAt":0,"marked":false,"unconfirmedCount":0},"hereNow":{"count":0,"summary":"Nobody here","groups":[]},"referralId":"v-1604766032","venueChains":[],"hasPerk":false}],"confident":false}}